YEARMONTH,EPISODE_ID,EVENT_ID,LOCATION_INDEX,RANGE,AZIMUTH,LOCATION,LATITUDE,LONGITUDE,LAT2,LON2
202006,147194,885072,1,.87,"SE","MARYDEL",39.11,-75.74,396600,7544400
202006,147194,885073,1,0,"N","MIDDLETOWN",39.45,-75.73,3927000,7543800
202006,147194,885074,1,1.75,"WSW","BLACKISTON",39.26,-75.73,3915600,7543800
202006,147194,885076,1,1.06,"W","CENTERVILLE",39.82,-75.64,3949200,7538400
202006,147194,885077,1,.69,"S","CENTERVILLE",39.81,-75.62,3948600,7537200
202006,147194,885078,1,.53,"E","MIDDLETOWN",39.45,-75.72,3927000,7543200
202006,147195,884885,1,1.28,"WNW","CHURCH HILL",39.14,-76,398400,7600
202006,147195,884887,1,2.11,"NW","BLYTHEDALE",39.6,-76.08,3936000,764800
202006,147195,884891,1,1.07,"E","BIGWOODS",39.28,-76.01,3916800,76600
202006,147195,884893,1,1.48,"SSW","CALVERT",39.68,-75.99,3940800,7559400
202006,147195,884896,1,0,"N","GREENSBORO",38.97,-75.8,3858200,7548000
202006,147217,885104,1,2.79,"SW","GARRISON MUNI ARPT",47.6,-101.42,4736000,10125200
202006,147217,886039,1,.69,"N","BOTTINEAU ARPT",48.84,-100.42,4850400,10025200
202006,147218,885111,1,7.96,"WSW","LINTON MUNI ARPT",46.17,-100.38,4610200,10022800
202006,147218,885112,1,14.95,"ENE","STRASBURG",46.25,-99.91,4615000,9954600
202006,147218,885113,1,3.49,"N","DANZIG",46.18,-99.48,4610800,9928800
202006,147218,885114,1,6.7,"ENE","DANZIG",46.18,-99.35,4610800,9921000
202006,147218,885115,1,5.28,"W","ELLENDALE",46,-98.63,4600,9837800
202006,147218,885165,1,13.95,"NE","ASHLEY",46.1712,-99.1618,4610272,999708
202006,147228,885248,1,4.95,"NNW","VERMILLION",39.79,-96.29,3947400,9617400
202006,147228,899328,1,0,"N","FRANKFORT",39.7,-96.42,3942000,9625200
202006,147228,899329,1,.53,"E","AXTELL",39.87,-96.26,3952200,9615600
202006,147228,899330,1,1.06,"E","AXTELL",39.87,-96.25,3952200,9615000
202006,147228,901259,1,1.38,"N","BELLEVILLE",39.84,-97.63,3950400,9737800
202006,147241,892123,1,.61,"W","GIBSONTON",27.85,-82.38,2751000,8222800
202006,147241,892123,2,.48,"W","GIBSONTON",27.8497,-82.3778,2750982,8222668
202006,147241,892123,3,.58,"W","GIBSONTON",27.8498,-82.3795,2750988,8222770
202006,147241,892123,4,.61,"W","GIBSONTON",27.8498,-82.3799,2750988,8222794
202006,147241,892124,1,3.05,"W","LITHIA",27.85,-82.22,2751000,8213200
202006,147241,892125,1,1.96,"WSW","OAK KNOLL",27.49,-82.31,2729400,8218600
202006,147241,892125,2,1.65,"WSW","OAK KNOLL",27.4917,-82.3052,2729502,8218312
202006,147241,892125,3,1.79,"W","OAK KNOLL",27.4951,-82.3086,2729706,8218516
202006,147241,892125,4,1.95,"ENE","LAKE MANATEE STATE PARK",27.4928,-82.3117,2729568,8218702
202006,147241,892126,1,0,"N","THONOTOSASSA",28.06,-82.3,283600,8218000
202006,147241,892126,2,.13,"E","THONOTOSASSA",28.0601,-82.2979,283606,8217874
202006,147241,892126,3,.16,"SE","THONOTOSASSA",28.0587,-82.2978,283522,8217868
202006,147241,892126,4,.09,"S","THONOTOSASSA",28.0587,-82.2999,283522,8217994
202006,147241,892127,1,2.79,"WSW","LAKE PANASOFFKEE",28.77,-82.17,2846200,8210200
202006,147241,892128,1,1.21,"E","LINDEN",28.57,-82.01,2834200,82600
202006,147241,892128,2,1.32,"E","LINDEN",28.5667,-82.0085,2834002,82510
202006,147241,892156,1,1.23,"W","CLEARWATER",27.9783,-82.77,2758698,8246200
202006,147241,892156,2,1.05,"NW","CLEARWATER",27.99,-82.7631,2759400,8245786
202006,147241,892157,1,3.02,"W","OXFORD",28.93,-82.08,2855800,824800
202006,147241,892157,2,2.85,"W","OXFORD",28.9233,-82.0764,2855398,824584
202006,147241,892158,1,.92,"SW","SUNNYLAND",27.27,-82.51,2716200,8230600
202006,147241,892158,2,1.01,"SW","SUNNYLAND",27.2693,-82.5111,2716158,8230666
202006,147241,892158,3,.95,"SW","SUNNYLAND",27.2693,-82.5097,2716158,8230582
202006,147241,892158,4,.9,"SW","SUNNYLAND",27.2694,-82.5085,2716164,8230510
202006,147241,892159,1,1.97,"WSW","BELSPUR",27.31,-82.48,2718600,8228800
202006,147241,892159,2,2.08,"NNW","BEE RIDGE",27.3083,-82.4814,2718498,8228884
202006,147241,892159,3,2.03,"WSW","BELSPUR",27.3083,-82.4802,2718498,8228812
202006,147241,892159,4,1.97,"WSW","BELSPUR",27.3083,-82.4793,2718498,8228758
202006,147241,892160,1,.92,"SE","OSPREY",27.19,-82.49,2711400,8229400
202006,147241,892160,2,.95,"SE","OSPREY",27.1895,-82.4901,2711370,8229406
202006,147241,892160,3,.96,"SE","OSPREY",27.1898,-82.4894,2711388,8229364
202006,147241,892160,4,.97,"SE","OSPREY",27.19,-82.4888,2711400,8229328
202006,147257,885405,1,2.21,"W","NAVAJO DAM",36.81,-107.65,3648600,10739000
202006,147257,885408,1,2.92,"WSW","BELEN",34.65,-106.83,3439000,10649800
202006,147275,898992,1,5.5,"NE","LISCO",41.56,-102.55,4133600,10233000
202006,147277,885510,1,1.35,"E","SHEBOYGAN",43.749,-87.693,4344940,8741580
202006,147278,885542,1,0,"N","GREENTOWN",40.48,-85.97,4028800,8558200
202006,147278,885543,1,2.14,"SSE","WHITESTOWN",39.97,-86.34,3958200,8620400
202006,147278,885544,1,3.77,"WSW","CASSVILLE",40.54,-86.18,4032400,8610800
202006,147278,885545,1,2.11,"W","TIPTON",40.28,-86.09,4016800,865400
202006,147278,885546,1,.53,"E","GREENTOWN",40.48,-85.96,4028800,8557600
202006,147278,885547,1,0,"N","GREENTOWN",40.48,-85.97,4028800,8558200
202006,147278,885548,1,1.38,"S","SYCAMORE",40.48,-85.92,4028800,8555200
202006,147278,885549,1,2.14,"NNE","CENTER",40.46,-86.06,4027600,863600
202006,147278,885550,1,.87,"SW","WINDFALL",40.36,-85.96,4021600,8557600
202006,147278,885551,1,1.26,"WSW","NEVADA",40.39,-86.02,4023400,861200
202006,147278,885552,1,.53,"W","PHLOX",40.42,-85.93,4025200,8555800
202006,147278,885553,1,.87,"NE","JEROME",40.46,-85.92,4027600,8555200
202006,147278,885554,1,0,"N","GASTON",40.32,-85.5,4019200,8530000
202006,147278,885555,1,0,"N","SHARPSVILLE",40.38,-86.08,4022800,864800
202006,147280,885533,1,.53,"E","NEW SALEM",39.53,-85.34,3931800,8520400
202006,147280,885535,1,2.33,"SSE","HOWELL BROTHERS ARPT",39.57,-85.4,3934200,8524000
202006,147283,885567,1,.15,"SSW","LARCHMONT HARBOR WXFLOW",40.9181,-73.7312,4055086,7343872
202006,147283,885569,1,.21,"NW","BAYVILLE WXFLOW",40.9023,-73.6326,4054138,7337956
202006,147283,885572,1,.3,"SW","NORWALK LIGHT WXFLOW",41.0767,-73.3837,414602,7323022
202006,147283,885577,1,2.95,"NNW","STATION KPTN6",40.85,-73.7898,4051000,7347388
202006,147283,885581,1,2.04,"SW","STAMFORD HARBOR",41.002,-73.571,41120,7334260
202006,147283,885583,1,.36,"NE","EATONS NECK WXFLOW",40.954,-73.3955,4057240,7323730
202006,147283,885680,1,4.67,"NW","POINT O WOODS WXFLOW",40.7,-73.2,4042000,7312000
202006,147283,885689,1,.3,"WNW","BLUE POINT WXFLOW",40.7323,-73.0349,4043938,732094
202006,147287,885692,1,.5,"ENE","WARWICK",41.2531,-74.3612,4115186,7421672
202006,147287,885694,1,1.25,"ESE","PLEASANTVILLE",41.14,-73.78,418400,7346800
202006,147287,885697,1,.36,"E","VALHALLA",41.0795,-73.7731,414770,7346386
202006,147287,885699,1,.52,"E","HAWTHORNE",41.1,-73.79,416000,7347400
202006,147287,885704,1,1.38,"N","HOLBROOK",40.82,-73.08,4049200,734800
202006,147287,885708,1,1.38,"S","MEDFORD",40.8,-73,4048000,7300
202006,147291,885717,1,1.1,"SE","GRASSY LICK",38.0671,-84.0082,384026,84492
202006,147291,885722,1,2.41,"SSE","SHARPSBURG",38.1658,-83.9211,389948,8355266
202006,147291,885722,2,1.19,"SE","SHARPSBURG",38.1898,-83.9124,3811388,8354744
202006,147291,885725,1,1.17,"SW","WOODSTOCK",37.2596,-84.5169,3715576,8431014
202006,147291,885725,2,.52,"SSW","BANDY",37.2932,-84.5039,3717592,8430234
202006,147291,885726,1,1.44,"NW","NORWOOD",37.1632,-84.6401,379792,8438406
202006,147291,885728,1,.64,"W","GRADE",37.0717,-84.4613,374302,8427678
202006,147291,885731,1,1.15,"S","WABD",37.3033,-84.4009,3718198,8424054
202006,147291,885736,1,1.2,"SE","FLEMINGSBURG",38.4072,-83.715,3824432,8342900
202006,148356,902627,1,14.98,"ESE","CHARLSON",47.9798,-102.5752,4758788,10234512
202006,148360,893653,1,10.2,"ESE","SCENIC",43.71,-102.37,4342600,10222200
202006,148360,893655,1,12.99,"W","PHILIP",44.02,-101.93,441200,10155800
202006,148360,893656,1,6.98,"N","MIDLAND",44.17,-101.17,4410200,10110200
202006,148366,893659,1,10.98,"SW","PARMELEE",43.23,-101.2,4313800,10112000
202006,148366,893660,1,6,"W","PARMELEE",43.32,-101.1394,4319200,1018364
202006,148367,893663,1,11.1,"S","HARRINGTON",43.01,-101.25,43600,10115000
202006,148369,893672,1,7,"NNE","CAMP CROOK",45.6436,-103.9246,4538616,10355476
202006,148369,893673,1,7.06,"NNE","CAMP CROOK",45.65,-103.95,4539000,10357000
202006,148369,893674,1,11.03,"SSW","LADNER",45.69,-103.84,4541400,10350400
202006,148369,893675,1,2,"E","LADNER",45.83,-103.6885,4549800,10341310
202006,148369,893677,1,9.26,"NW","LUDLOW",45.94,-103.49,4556400,10329400
202006,148370,893680,1,0,"N","(ICR)WINNER AIRPORT",43.39,-99.84,4323400,9950400
202006,148371,893684,1,1,"WSW","RED ELM",45.0545,-101.8089,453270,10148534
202006,148371,893685,1,9,"WSW","RED ELM",45.0102,-101.9603,45612,10157618
202006,148371,893686,1,0,"N","(D07)FAITH ARPT",45.03,-102.02,451800,1021200
202006,148372,893687,1,6.93,"SE","ST FRANCIS",43.07,-100.81,434200,10048600
202006,148372,893688,1,18.85,"SSE","MISSION",43.06,-100.51,433600,10030600
202006,148372,893689,1,16.55,"SSE","MISSION",43.09,-100.53,435400,10031800
202006,148372,893690,1,16.55,"SSE","MISSION",43.09,-100.53,435400,10031800
202006,148374,893695,1,0,"N","GILLETTE",44.29,-105.5,4417400,10530000
202006,148374,893696,1,2,"SSE","GILLETTE",44.2633,-105.4845,4415798,10529070
202006,148374,893697,1,1,"ESE","GILLETTE",44.2845,-105.4813,4417070,10528878
202006,148374,893698,1,1,"S","GILLETTE",44.2755,-105.5,4416530,10530000
202006,148374,893699,1,3,"S","GILLETTE",44.2466,-105.5,4414796,10530000
202006,148374,893700,1,2,"SSE","GILLETTE",44.2633,-105.4845,4415798,10529070
202006,148377,893701,1,12.6,"N","WRIGHT",43.93,-105.45,4355800,10527000
202006,148378,893706,1,4,"E","HOT SPRINGS",43.43,-103.4003,4325800,10324018
202006,148379,893710,1,1.35,"E","CUSTER",43.771,-103.573,4346260,10334380
202006,148379,893715,1,0,"N","CUSTER",43.77,-103.6,4346200,10336000
202006,148379,904934,1,2.07,"N","CUSTER",43.8,-103.6,4348000,10336000
202006,148379,904934,2,4.54,"E","CUSTER",43.78,-103.51,4346800,10330600
202006,148379,904934,3,5.27,"ESE","CUSTER",43.73,-103.51,4343800,10330600
202006,148379,904934,4,.69,"S","CUSTER",43.76,-103.6,4345600,10336000
202006,148382,893725,1,4,"SE","CARTER",43.3391,-100.1437,4320346,1008622
202006,148412,894006,1,9,"WSW","EARTH",34.1802,-102.5455,3410812,10232730
202006,148412,894011,1,6,"SSW","WOLFFORTH",33.4198,-102.0598,3325188,1023588
202006,148412,894012,1,5,"ENE","ABERNATHY",33.8577,-101.7695,3351462,10146170
202006,148412,894014,1,0,"N","NEW HOME",33.32,-101.92,3319200,10155200
202006,148412,894015,1,3,"NNE","TAHOKA",33.2201,-101.7601,3313206,10145606
202006,148412,894016,1,5.44,"SSW","GRAHAM CHAPEL",33.0815,-101.5162,334890,10130972
202006,148412,894017,1,0,"N","BROWNFIELD",33.18,-102.28,3310800,10216800
202006,148739,895979,1,1.38,"N","BRUSHY",42.45,-94,4227000,9400
202006,148739,895980,1,.85,"NE","TITONKA",43.24,-94.04,4314400,942400
202006,148739,895981,1,.69,"N","DAKOTA CITY",42.73,-94.22,4243800,9413200
202006,148739,895982,1,1.02,"E","DAKOTA CITY",42.72,-94.2,4243200,9412000
202006,148739,895983,1,.87,"SW","MURRAY",41.04,-93.98,412400,9358800
202006,148739,895992,1,.69,"S","EVANSDALE",42.46,-92.28,4227600,9216800
202006,148739,895993,1,1.23,"SW","EVANSDALE",42.46,-92.3,4227600,9218000
202006,148739,895994,1,1.68,"ESE","WATERLOO",42.49,-92.32,4229400,9219200
202006,148739,895998,1,1.47,"NNE","IOWA FALLS MUNI ARPT",42.49,-93.26,4229400,9315600
202006,148739,895999,1,0,"N","IOWA FALLS",42.52,-93.27,4231200,9316200
202006,148739,896005,1,2.31,"SSW","UNIQUE",42.69,-94.37,4241400,9422200
202006,148739,896006,1,.51,"E","DAKOTA CITY",42.72,-94.21,4243200,9412600
202006,148739,896007,1,2.54,"E","UNIQUE",42.72,-94.3,4243200,9418000
202006,148739,896009,1,2.81,"S","DAKOTA CITY",42.68,-94.21,4240800,9412600
202006,148739,896010,1,1.54,"W","FARLIN",42.08,-94.48,424800,9428800
202006,148739,896011,1,0,"N","JEFFERSON",42.02,-94.38,421200,9422800
202006,148739,896012,1,.51,"E","BOUTON",41.85,-94.01,4151000,94600
202006,148739,896013,1,.86,"NE","DALLAS CENTER",41.69,-93.96,4141400,9357600
202006,148739,896014,1,.69,"S","ASHAWA",41.57,-93.77,4134200,9346200
202006,148739,896015,1,1.24,"SE","WEST DES MOINES",41.57,-93.7,4134200,9342000
202006,148739,896016,1,0,"N","ASHAWA",41.58,-93.77,4134800,9346200
202006,148739,896017,1,1.24,"NW","URBANDALE",41.64,-93.74,4138400,9344400
202006,147291,885736,2,2.16,"WNW","DALESBURG",38.48,-83.7078,3828800,8342468
202006,147291,885740,1,1.79,"SW","EGLON",37.4295,-84.1399,3725770,848394
202006,147291,885744,1,.55,"W","WANETA",37.47,-84.04,3728200,842400
202006,147291,885748,1,.63,"NNE","FOXTOWN",37.5077,-83.9938,3730462,8359628
202006,147291,885753,1,0,"N","ANNVILLE",37.32,-83.97,3719200,8358200
202006,147291,885759,1,1.4,"ENE","RAVENNA",37.6897,-83.9275,3741382,8355650
202006,147291,885763,1,2.17,"WSW","SYMBOL",37.2627,-84.1685,3715762,8410110
202006,147291,885763,2,1.75,"WNW","SYMBOL",37.2771,-84.1606,3716626,849636
202006,147291,885764,1,3.06,"SW","SLADE",37.7689,-83.7398,3746134,8344388
202006,147291,885765,1,.7,"S","LOWER BUFFALO",37.5199,-83.6984,3731194,8341904
202006,147291,885768,1,2.12,"NNW","GATES",38.2599,-83.379,3815594,8322740
202006,147291,885769,1,1.6,"S","HALDEMAN",38.227,-83.3167,3813620,8319002
202006,147291,885770,1,1.68,"SSE","PAXTON",37.6589,-83.4049,3739534,8324294
202006,147291,885773,1,.55,"SE","WEST LIBERTY",37.9139,-83.2635,3754834,8315810
202006,147291,885775,1,.88,"SW","FLATGAP",37.92,-82.89,3755200,8253400
202006,147291,885776,1,.55,"W","PAINTSVILLE",37.82,-82.81,3749200,8248600
202006,147293,885712,1,.21,"SSE","STATION SDHN4",40.467,-74.009,4028020,74540
202006,147294,885715,1,0,"N","ASSARIA",38.68,-97.6,3840800,9736000
202006,147298,885724,1,.87,"SE","LITTLE NECK",40.76,-73.74,4045600,7344400
202006,147298,885727,1,.64,"NNW","HICKSVILLE",40.7882,-73.5056,4047292,7330336
202006,147298,885730,1,.73,"NW","HICKSVILLE",40.7868,-73.5106,4047208,7330636
202006,147301,885733,1,26.46,"W","FIRE ISLAND WXFLOW",40.6392,-73.7639,4038352,7345834
202006,147301,885750,1,85.74,"NE","STATION 44025",41.2018,-72.1192,4112108,727152
202006,147302,885738,1,1.55,"E","VERSAILLES",41.6,-72.02,4136000,721200
202006,147302,885742,1,.59,"NNE","JEWETT CITY",41.6082,-71.9771,4136492,7158626
202006,147328,885978,1,1.48,"NNE","DWYER",39.69,-84.21,3941400,8412600
202006,147328,885979,1,0,"N","NATIONAL MILITARY HO",39.75,-84.25,3945000,8415000
202006,147328,885980,1,.53,"W","CROSSWICK",39.53,-84.09,3931800,845400
202006,147328,885981,1,.94,"N","GOES",39.7835,-83.9208,3947010,8355248
202006,147328,885982,1,1.48,"SSE","FT MC KINLEY",39.78,-84.24,3946800,8414400
202006,147328,886249,1,0,"N","MT ST JOSEPH",39.1,-84.63,396000,8437800
202006,147328,886250,1,0,"N","(DAY)COX DAYTON INTL",39.9,-84.22,3954000,8413200
202006,147328,886251,1,.53,"W","LEBANON JCT",39.73,-84.13,3943800,847800
202006,147328,886252,1,.87,"NW","LEBANON JCT",39.74,-84.13,3944400,847800
202006,147328,886253,1,.87,"NE","MORGAN PLACE",39.89,-84.26,3953400,8415600
202006,147328,886254,1,.69,"N","TROY",40.06,-84.2,403600,8412000
202006,147328,886257,1,1.69,"NW","PIQUA",40.1647,-84.2556,409882,8415336
202006,147328,886258,1,1.3,"NW","GOES",39.7843,-83.936,3947058,8356160
202006,147328,886374,1,.26,"W","SIDNEY",40.2801,-84.155,4016806,849300
202006,147328,886376,1,0,"N","SIDNEY",40.28,-84.15,4016800,849000
202006,147328,886377,1,.68,"W","SIDNEY",40.2793,-84.1628,4016758,849768
202006,147328,886378,1,.53,"W","PORT JEFFERSON",40.33,-84.09,4019800,845400
202006,147328,886379,1,.37,"NNE","PLEASANT HILL",40.0549,-84.3471,403294,8420826
202006,147328,891024,1,.28,"SW","SUGAR GROVE",40.0774,-84.354,404644,8421240
202006,147328,891024,2,.27,"ESE","SUGAR GROVE",40.0781,-84.3456,404686,8420736
202006,147333,886010,1,5.72,"ENE","DURANGO",37.3089,-107.7882,3718534,10747292
202006,147338,886113,1,16.81,"SSW","RHAME",46.01,-103.8,46600,10348000
202006,147338,886116,1,2.03,"ENE","RHAME",46.24,-103.61,4614400,10336600
202006,147338,886117,1,.84,"SE","HETTINGER ARPT",46.01,-102.64,46600,10238400
202006,147338,886129,1,.84,"NE","BOWMAN",46.19,-103.39,4611400,10323400
202006,147338,886180,1,2.49,"SSW","MINOT",48.2,-101.31,4812000,10118600
202006,147341,886065,1,2.12,"ENE","REEDSBURG MUNI ARPT",43.54,-89.94,4332400,8956400
202006,147341,886065,2,.97,"ESE","BARABOO",43.4634,-89.713,4327804,8942780
202006,147341,886067,1,0,"N","LONE ROCK AIRPORT",43.21,-90.19,4312600,9011400
202006,147341,886075,1,0,"N","BLUE MOUNDS",43.02,-89.83,431200,8949800
202006,147341,886076,1,1.01,"E","MAPLE BLUFF",43.1,-89.33,436000,8919800
202006,147341,886080,1,1.99,"W","WESTFIELD",43.88,-89.52,4352800,8931200
202006,147341,886080,2,2,"SSE","ENDEAVOR",43.672,-89.4598,4340320,8927588
202006,147341,886083,1,.69,"S","MARQUETTE",43.74,-89.14,4344400,898400
202006,147341,886084,1,.85,"SW","KINGSTON",43.69,-89.13,4341400,897800
202006,147341,886090,1,.69,"S","WISCONSIN DELLS",43.62,-89.77,4337200,8946200
202006,147341,886097,1,1,"W","PORTAGE",43.55,-89.47,4333000,8928200
202006,147341,886097,2,1.13,"WNW","PARDEEVILLE",43.5341,-89.3019,4332046,8918114
202006,147341,886098,1,4.92,"NE","LEWISTON",43.63,-89.56,4337800,8933600
202006,147341,886104,1,.85,"NW","ARLINGTON",43.34,-89.38,4320400,8922800
202006,147341,886125,1,.86,"NNE","FOND DU LAC  AIRPORT",43.7816,-88.4836,4346896,8829016
202006,147341,886125,2,2.77,"S","TAYCHEEDAH",43.7601,-88.3947,4345606,8823682
202006,147341,886131,1,.69,"N","MT CALVARY",43.83,-88.25,4349800,8815000
202006,147341,886132,1,1.99,"E","JOHNSBURG",43.88,-88.24,4352800,8814400
202006,147341,886133,1,1.65,"ESE","MT CALVARY",43.81,-88.22,4348600,8813200
202006,147341,886134,1,1,"W","DUNDEE",43.65,-88.2,4339000,8812000
202006,147341,886138,1,.5,"E","PLYMOUTH",43.75,-87.97,4345000,8758200
202006,147341,886145,1,1,"E","KOHLER",43.73,-87.76,4343800,8745600
202006,147341,886146,1,0,"N","(SBM)SHEBOYGAN CO AR",43.77,-87.85,4346200,8751000
202006,147341,886154,1,.85,"SW","BEAVER DAM",43.46,-88.84,4327600,8850400
202006,147341,886157,1,.5,"W","WAUPUN",43.63,-88.74,4337800,8844400
202006,147341,886159,1,.69,"N","JUNEAU",43.41,-88.7,4324600,8842000
202006,147341,886161,1,0,"N","HUSTISFORD",43.35,-88.6,4321000,8836000
202006,147341,886164,1,2.89,"NW","DANVILLE",43.36,-88.99,4321600,8859400
202006,147341,886169,1,2.13,"WNW","HOLY HILL",43.25,-88.37,4315000,8822200
202006,147341,886173,1,2.51,"E","ST ANTHONY",43.43,-88.28,4325800,8816800
202006,147341,886177,1,2.13,"ESE","HARTFORD",43.31,-88.34,4318600,8820400
202006,147341,886178,1,2.12,"WNW","SAUKVILLE",43.39,-87.97,4323400,8758200
202006,147341,886179,1,2.01,"W","FIVE CORNERS",43.32,-88.04,4319200,882400
202006,147347,886082,1,22.39,"WSW","HIAWATHA CAMP",40.83,-109.01,4049800,109600
202006,147347,886085,1,12.17,"NW","GREYSTONE",40.74,-108.84,4044400,10850400
202006,147347,886086,1,0,"N","MEEKER ARPT",40.05,-107.88,403000,10752800
202006,147347,886088,1,2.07,"N","DURHAM",39.11,-108.6,396600,10836000
202006,147347,886089,1,.54,"E","CLIFTON",39.08,-108.44,394800,10826400
202006,147347,886091,1,0,"N","(CEZ)CORTEZ ARPT",37.3,-108.63,3718000,10837800
202006,147347,886093,1,2.68,"E","ORCHARD MESA",39.03,-108.52,391800,10831200
202006,147347,886093,2,2.62,"SE","GRAND JCT",39.05,-108.52,393000,10831200
202006,147347,886096,1,.87,"NW","FRUITA",39.16,-108.74,399600,10844400
202006,147347,887498,1,4.37,"NE","CAMEO",39.2,-108.27,3912000,10816200
202006,147347,887499,1,.53,"W","DOUGLAS PASS",39.6,-108.81,3936000,10848600
202006,147347,887500,1,7.11,"WNW","DOVE CREEK",37.81,-109.02,3748600,1091200
202006,147347,887501,1,5.34,"WNW","CAHONE",37.68,-108.91,3740800,10854600
202006,147347,890831,1,1.48,"NE","GRAND JCT",39.0953,-108.5308,395718,10831848
202006,147347,890832,1,2.12,"ENE","ORCHARD MESA",39.0439,-108.5347,392634,10832082
202006,147347,890833,1,2.83,"SSE","GRAND JCT",39.0459,-108.5208,392754,10831248
202006,147351,886107,1,0,"N","HAMILTON",48.8,-97.45,4848000,9727000
202006,147351,886114,1,2.76,"N","ST THOMAS",48.66,-97.45,4839600,9727000
202006,147352,886118,1,3.83,"ENE","BIG WOODS",48.33,-97.05,4819800,973000
202006,147353,886136,1,.69,"S","MOAB",38.57,-109.55,3834200,10933000
202006,147353,886139,1,.88,"SE","(CNY)CANYONLANDS FLD",38.76,-109.74,3845600,10944400
202006,147353,886143,1,.55,"E","(4BL)BLANDING MUNI A",37.58,-109.47,3734800,10928200
202006,147353,886147,1,.54,"E","CRESCENT JCT",38.95,-109.79,3857000,10947400
202006,147353,886148,1,1.79,"WNW","ANETH",37.23,-109.21,3713800,10912600
202006,147354,889038,1,.69,"S","BEVENT",44.76,-89.38,4445600,8922800
202006,147354,889039,1,1.48,"W","FONTENOY",44.37,-87.81,4422200,8748600
202006,147354,889040,1,.85,"NW","MARIBEL",44.28,-87.81,4416800,8748600
202006,147355,886200,1,4.72,"NW","MACK",39.27,-108.93,3916200,10855800
202006,147355,886201,1,1.28,"ENE","DURHAM",39.09,-108.58,395400,10834800
202006,147355,886202,1,.53,"W","(1V1)RIFLE ARPT",39.53,-107.73,3931800,10743800
202006,147355,886208,1,12.04,"SSW","RANGELY",39.92,-108.89,3955200,10853400
202006,147355,886209,1,2.76,"N","SKYWAY",39.09,-108.12,395400,1087200
202006,147355,886211,1,0,"N","MEEKER ARPT",40.05,-107.88,403000,10752800
202006,147355,887493,1,100.72,"N","DE BEQUE",40.76,-107.85,4045600,10751000
202006,147355,887494,1,13.08,"ENE","BUFORD",40.08,-107.37,404800,10722200
202006,147355,887495,1,4.28,"E","BLUE MTN",40.24,-108.77,4014400,10846200
202006,147355,887496,1,3.44,"NW","DOLORES",37.48,-108.55,3728800,10833000
202006,148004,891170,1,1.77,"ENE","WEST HAMLIN",38.29,-82.17,3817400,8210200
202006,148004,891171,1,.54,"E","MINERAL WELLS ARPT",39.18,-81.51,3910800,8130600
202006,148004,891172,1,4.28,"NNE","BYRNSIDE",38.36,-81.95,3821600,8157000
202006,148004,891175,1,.53,"W","PENNSBORO",39.28,-80.98,3916800,8058800
202006,148014,891207,1,.5,"SSE","FOSTER",38.7936,-84.2156,3847616,8412936
202006,148014,891207,2,.63,"SSE","FOSTER",38.7917,-84.215,3847502,8412900
202006,148014,891207,3,.61,"SE","FOSTER",38.7926,-84.2137,3847556,8412822
202006,148014,891207,4,.51,"SE","FOSTER",38.794,-84.2146,3847640,8412876
202006,148014,891209,1,.87,"NE","PARK HILLS",39.08,-84.52,394800,8431200
202006,148014,891209,2,.87,"NE","PARK HILLS",39.0798,-84.5199,394788,8431194
202006,148014,891209,3,.86,"NE","PARK HILLS",39.0799,-84.5201,394794,8431206
202006,148014,891209,4,.87,"NE","PARK HILLS",39.08,-84.5201,394800,8431206
202006,148014,891212,1,.54,"E","FOSTER",38.8,-84.21,3848000,8412600
202006,148029,891360,1,4,"WNW","CROSSTOWN",37.7722,-89.7977,3746332,8947862
202006,148029,891362,1,3,"WSW","HARVIELL",36.6534,-90.52,3639204,9031200
202006,148029,899003,1,.32,"WSW","FREMONT",36.9481,-91.1754,3656886,9110524
202006,148029,899003,2,2.93,"ESE","FREMONT",36.9291,-91.1238,3655746,917428
202006,148029,899003,3,3.85,"NW","EASTWOOD",36.9327,-91.0864,3655962,915184
202006,148029,899003,4,1.63,"WSW","SOUTH VAN BUREN",36.9454,-91.049,3656724,912940
202006,148029,899003,5,1.83,"WNW","VAN BUREN",37.014,-91.0482,37840,912892
202006,148029,899003,6,3.56,"NNE","FREMONT",37.0001,-91.1549,3706,919294
202006,148030,891365,1,5,"WSW","MURPHYSBORO",37.7423,-89.4146,3744538,8924876
202006,148031,891370,1,5,"SW","ELKTON",36.7688,-87.2139,3646128,8712834
202006,148031,899012,1,0,"N","HENDERSON",37.83,-87.58,3749800,8734800
202006,148031,899012,2,0,"N","SPOTTSVILLE",37.85,-87.42,3751000,8725200
202006,148031,899012,3,0,"N","REED",37.85,-87.35,3751000,8721000
202006,148031,899012,4,2.14,"WSW","HEBBARDSVILLE",37.7601,-87.4071,3745606,8724426
202006,148031,899012,5,0,"WSW","ROBARDS",37.67,-87.55,3740200,8733000
202006,148031,899012,6,0,"NE","CORYDON",37.73,-87.7,3743800,8742000
202006,148031,899013,1,0,"NE","CALHOUN",37.53,-87.27,3731800,8716200
202006,148031,899013,2,0,"N","ISLAND",37.45,-87.15,3727000,879000
202006,148031,899013,3,0,"NE","LIVERMORE",37.48,-87.13,3728800,877800
202006,148031,899013,4,1.38,"W","NUCKOLS",37.5174,-87.1449,3731044,878694
202006,148031,899013,5,2.22,"NE","CALHOUN",37.555,-87.2445,3733300,8714670
202006,148031,899021,1,0,"S","OWENSBORO",37.77,-87.12,3746200,877200
202006,148031,899021,2,0,"S","KNOTTSVILLE",37.77,-86.9,3746200,8654000
202006,148031,899021,3,0,"S","WHITESVILLE",37.68,-86.88,3740800,8652800
202006,148031,899021,4,0,"S","UTICA",37.62,-87.12,3737200,877200
202006,148031,899021,5,.73,"WNW","PANTHER",37.6329,-87.2429,3737974,8714574
202006,148031,899021,6,0,"WNW","CURDSVILLE",37.73,-87.33,3743800,8719800
202006,148031,899022,1,2,"N","CENTRAL CITY",37.329,-87.13,3719740,877800
202006,148031,899022,2,2,"E","CENTRAL CITY",37.3,-87.0936,3718000,875616
202006,148031,899022,3,2,"S","CENTRAL CITY",37.2711,-87.13,3716266,877800
202006,148031,899022,4,2,"W","CENTRAL CITY",37.3,-87.1664,3718000,879984
202006,148031,899381,1,0,"N","PARADISE",37.27,-86.98,3716200,8658800
202006,148031,899381,2,2.24,"SE","MARTWICK",37.3111,-86.9868,3718666,8659208
202006,148031,899381,3,1.9,"SE","MARTWICK",37.3116,-86.9944,3718696,8659664
202006,148031,899381,4,.43,"W","PARADISE",37.27,-86.9878,3716200,8659268
202006,148034,891402,1,0,"N","(RWL)RAWLINS AIRPORT",41.81,-107.2,4148600,10712000
202006,148034,891403,1,4.54,"SW","COYOTE SPRINGS",41.74,-106.84,4144400,10650400
202006,148035,891404,1,2.09,"SE","CARPENTER",41.03,-104.34,411800,10420400
202006,148035,891405,1,4.18,"N","CARPENTER",41.11,-104.36,416600,10421600
202006,148035,891406,1,.87,"SW","CARPENTER",41.04,-104.38,412400,10422800
202006,148035,891407,1,1.71,"ENE","ARCHER",41.16,-104.63,419600,10437800
202006,148035,891408,1,2.08,"NW","(CYS)CHEYENNE AIRPORT",41.18,-104.84,4110800,10450400
202006,148035,891409,1,2.19,"ENE","(CYS)CHEYENNE AIRPORT",41.17,-104.77,4110200,10446200
202006,148035,891410,1,1.25,"ENE","(CYS)CHEYENNE AIRPORT",41.17,-104.79,4110200,10447400
202006,148035,891411,1,3.41,"ENE","(CYS)CHEYENNE AIRPORT",41.18,-104.75,4110800,10445000
202006,148035,891412,1,4.66,"NW","ARCHER",41.2,-104.72,4112000,10443200
202006,148035,891413,1,1.71,"ENE","(CYS)CHEYENNE AIRPORT",41.17,-104.78,4110200,10446800
202006,148035,891414,1,.69,"N","(CYS)CHEYENNE AIRPORT",41.17,-104.81,4110200,10448600
202006,148035,891415,1,1.71,"ENE","(CYS)CHEYENNE AIRPORT",41.17,-104.78,4110200,10446800
202006,148035,891416,1,0,"N","FEDERAL",41.27,-105.1,4116200,1056000
202006,148036,891418,1,.52,"E","(SNY)SIDNEY ARPT",41.1,-102.98,416000,10258800
202006,148036,891419,1,1.38,"S","DALTON",41.39,-102.97,4123400,10258200
202006,148048,891453,1,.69,"N","BRITTON",41.99,-83.83,4159400,8349800
202006,148049,891454,1,2.63,"WSW","CHESTERFIELD",42.66,-82.88,4239600,8252800
202006,148049,891455,1,1.65,"WNW","DEFORD",43.53,-83.23,4331800,8313800
202006,148049,891456,1,.5,"E","FAIRGROVE",43.52,-83.54,4331200,8332400
202006,148049,891457,1,2.07,"S","GENESEE",43.09,-83.6,435400,8336000
202006,148049,891458,1,1.47,"SSE","BELSAY",43,-83.62,4300,8337200
202006,148414,894018,1,3,"NNW","MC ADOO",33.7701,-101,3346206,10100
202006,148414,894019,1,7.54,"SSE","CROSBYTON MUNI ARPT",33.5253,-101.1651,3331518,1019906
202006,148414,899779,1,2,"SSW","CROSBYTON",33.6433,-101.2633,3338598,10115798
202006,148416,894074,1,2.56,"WSW","PRAY",44.36,-90.55,4421600,9033000
202006,148416,894075,1,.85,"NW","TREMPEALEAU",44.01,-91.44,44600,9126400
202006,148416,894077,1,0,"N","HATFIELD",44.42,-90.73,4425200,9043800
202006,148416,894078,1,.49,"W","MERRILLAN",44.45,-90.84,4427000,9050400
202006,148416,894079,1,0,"N","TAYLOR",44.32,-91.12,4419200,917200
202006,148416,894081,1,.85,"NW","TREMPEALEAU",44.01,-91.44,44600,9126400
202006,148416,894083,1,.69,"N","NEW AMSTERDAM",43.99,-91.32,4359400,9119200
202006,148416,894085,1,2.03,"SW","DODGE",44.11,-91.58,446600,9134800
202006,148416,894088,1,0,"N","BLAIR",44.3,-91.23,4418000,9113800
202006,148416,894089,1,.85,"SE","NEILLSVILLE",44.56,-90.59,4433600,9035400
202006,148416,894092,1,1.18,"W","HOLMEN",43.9681,-91.2737,4358086,9116422
202006,148416,894092,2,.5,"E","MIDWAY",43.93,-91.24,4355800,9114400
202006,148416,895744,1,1,"W","WEST SALEM",43.9,-91.1,4354000,916000
202006,148416,895746,1,0,"N","(LSE)LA CROSSE MUNI",43.88,-91.25,4352800,9115000
202006,148416,895749,1,4.18,"S","NEW ROME",44.17,-89.89,4410200,8953400
202006,148416,895750,1,1.21,"NE","ONALASKA",43.89,-91.21,4353400,9112600
202006,148416,895751,1,4.51,"E","NEW ROME",44.22,-89.79,4413200,8947400
202006,148416,895752,1,2.3,"NNW","HERRINGTON",43.81,-91.2,4348600,9112000
202006,148416,895756,1,.85,"NE","SPARTA",43.94,-90.81,4356400,9048600
202006,148416,895760,1,.5,"E","COON VLY",43.7,-91.01,4342000,91600
202006,148416,895761,1,.69,"S","TOMAH",43.97,-90.5,4358200,9030000
202006,148416,895762,1,1.21,"SW","TOMAH",43.97,-90.52,4358200,9031200
202006,148416,896232,1,0,"N","FRIENDSHIP",43.97,-89.82,4358200,8949200
202006,148416,896234,1,4.26,"NE","STODDARD",43.72,-91.17,4343200,9110200
202006,148416,896236,1,.69,"S","ELROY",43.74,-90.27,4344400,9016200
202006,148416,896238,1,4.05,"E","WHITE CREEK",43.84,-89.79,4350400,8947400
202006,148416,896239,1,2.94,"NNW","BELL CENTER",43.32,-90.84,4319200,9050400
202006,148416,896240,1,.69,"S","RICHLAND CENTER",43.32,-90.38,4319200,9022800
202006,148416,896780,1,1.7,"NW","TREMPEALEAU",44.02,-91.45,441200,9127000
202006,148416,896786,1,1.48,"W","WHITEHALL",44.37,-91.35,4422200,9121000
202006,148416,896787,1,.85,"SW","COUNCIL BAY",44.04,-91.29,442400,9117400
202006,148739,896018,1,1.04,"W","SPRING HILL",41.42,-93.69,4125200,9341400
202006,148739,896019,1,1.55,"W","DES MOINES",41.6,-93.65,4136000,9339000
202006,148739,896020,1,1.24,"NE","WINDSOR HGTS",41.61,-93.7,4136600,9342000
202006,148739,896021,1,1.03,"E","FT DES MOINES",41.53,-93.61,4131800,9336600
202006,148739,896022,1,.52,"W","BEWBERN",41.23,-93.24,4113800,9314400
202006,148739,896024,1,4.03,"NNE","COLUMBIA",41.23,-93.11,4113800,936600
202006,148739,896025,1,.69,"S","DAKOTA CITY",42.71,-94.22,4242600,9413200
202006,148739,896026,1,.51,"W","REINBECK",42.32,-92.61,4219200,9236600
202006,148739,896027,1,.69,"N","ESTHERVILLE ARPT",43.41,-94.75,4324600,9445000
202006,148739,896028,1,.69,"N","ESTHERVILLE ARPT",43.41,-94.75,4324600,9445000
202006,148739,896029,1,4.42,"SSW","DOWS",42.59,-93.53,4235400,9331800
202006,148739,896030,1,0,"N","BAGLEY",41.85,-94.43,4151000,9425800
202006,148739,896031,1,.51,"E","BAYARD",41.85,-94.56,4151000,9433600
202006,148739,896032,1,2.07,"SW","MINBURN",41.75,-94.06,4145000,943600
202006,148739,896033,1,.52,"E","DALLAS CENTER",41.68,-93.96,4140800,9357600
202006,148739,896034,1,.69,"N","GRIMES",41.69,-93.8,4141400,9348000
202006,148739,896035,1,2.07,"S","HADDEN HILL",41.59,-93.83,4135400,9349800
202006,148739,896036,1,1.55,"W","DODGE FLD ARPT",41.68,-93.75,4140800,9345000
202006,148739,896037,1,.52,"E","(DSM)DES MOINES INTL",41.53,-93.66,4131800,9339600
202006,148739,898646,1,4.08,"E","BANCROFT",43.27,-94.14,4316200,948400
202006,148739,898647,1,2.13,"SSE","WATERLOO",42.47,-92.34,4228200,9220400
202006,148739,898648,1,2.81,"N","TRIPOLI",42.84,-92.26,4250400,9215600
202006,148739,898649,1,.86,"NW","PERRY",41.84,-94.13,4150400,947800
202006,148739,898650,1,.86,"NE","REINBECK",42.33,-92.59,4219800,9235400
202006,148739,898651,1,3.36,"ENE","REINBECK",42.34,-92.54,4220400,9232400
202006,148740,896122,1,2.54,"SE","ESPYVILLE",40.5758,-83.2135,4034548,8312810
202006,148740,896122,2,1.87,"ENE","MARION",40.5937,-83.0993,4035622,835958
202006,148740,902315,1,1.25,"ENE","EDENVILLE",40.83,-83.48,4049800,8328800
202006,148740,902316,1,1.71,"WNW","MT CORY",40.94,-83.85,4056400,8351000
202006,148740,902317,1,1.57,"W","CRAWFORD",40.92,-83.36,4055200,8321600
202006,148740,902318,1,3.76,"WNW","NEW STARK",40.86,-83.79,4051600,8347400
202006,148740,902320,1,.87,"NE","BENTON RIDGE",41.01,-83.79,41600,8347400
202006,148740,902321,1,1.38,"N","FINDLAY",41.05,-83.65,413000,8339000
202006,148740,902322,1,.87,"SW","ARCADIA",41.11,-83.51,416600,8330600
202006,148740,902323,1,.69,"N","NORTH BALTIMORE",41.19,-83.68,4111400,8340800
202006,148740,902324,1,.69,"S","AUSTINTOWN",41.09,-80.75,415400,8045000
202006,148740,902325,1,.86,"SE","KINSMAN",41.44,-80.59,4126400,8035400
202006,148740,902326,1,.52,"E","POLAND",41.02,-80.61,411200,8036600
202006,148740,902891,1,.47,"E","BLOOMDALE",41.1706,-83.5609,4110236,8333654
202006,148740,902892,1,0,"E","RISING SUN",41.27,-83.43,4116200,8325800
202006,148740,902893,1,0,"E","BRADNER",41.32,-83.45,4119200,8327000
202006,148740,902894,1,0,"NE","PEMBERVILLE",41.4,-83.47,4124000,8328200
202006,148740,902895,1,.22,"WSW","PUT IN BAY",41.6486,-82.8239,4138916,8249434
202006,148740,902896,1,.69,"S","LIMESTONE",41.54,-83.22,4132400,8313200
202006,148740,902897,1,1.73,"SW","OAK HARBOR",41.5,-83.17,4130000,8310200
202006,148740,902897,2,.66,"SE","MARBLEHEAD",41.5437,-82.7404,4132622,8244424
202006,148740,902898,1,2.42,"NNW","KINGSWAY",41.4532,-83.1448,4127192,838688
202006,148740,902899,1,1.56,"W","NEW RIEGEL",41.05,-83.35,413000,8321000
202006,148740,902900,1,.62,"N","TIFFIN SENECA CO ARP",41.1089,-83.2213,416534,8313278
202006,148740,902900,2,1.03,"NNW","TIFFIN",41.1144,-83.175,416864,8310500
202006,148740,902901,1,2.58,"S","NORTH ROBINSON",40.7631,-82.8575,4045786,8251450
202006,148740,902902,1,.52,"W","NEW LONDON",41.08,-82.41,414800,8224600
202006,148740,902905,1,0,"E","BERLIN HGTS",41.32,-82.5,4119200,8230000
202006,148740,902908,1,.63,"SW","BIRMINGHAM",41.3229,-82.3577,4119374,8221462
202006,148740,903610,1,1.75,"ESE","CRYSTAL ROCK",41.4394,-82.8193,4126364,8249158
202006,148740,903611,1,1.42,"W","WILMER",41.4012,-82.7274,4124072,8243644
202006,148740,903611,2,1.14,"NE","SANDUSKY",41.4605,-82.7032,4127630,8242192
202006,148740,903612,1,2.21,"WNW","WESTFIELD",40.44,-83.02,4026400,831200
202006,148740,903613,1,0,"N","WILLIAMSPORT",40.58,-82.73,4034800,8243800
202006,148740,903614,1,0,"N","(MFD)LAHM MUNI ARPT",40.82,-82.52,4049200,8231200
202006,148740,903615,1,.26,"SSE","MT VERNON",40.3964,-82.4788,4023784,8228728
202006,148740,903616,1,1.73,"SE","WINDSOR",40.78,-82.41,4046800,8224600
202006,148740,903617,1,1.58,"W","PERRYSVILLE",40.6501,-82.3301,4039006,8219806
202006,148740,904909,1,1.04,"E","ROCHESTER",41.12,-82.28,417200,8216800
202006,148740,904909,2,.54,"NE","LA GRANGE",41.2356,-82.1128,4114136,826768
202006,148740,904912,1,2.07,"S","AVON LAKE",41.49,-82.02,4129400,821200
202006,148740,904913,1,.86,"SE","ELYRIA",41.36,-82.09,4121600,825400
202006,148740,904913,2,.24,"NNW","NORTH RIDGEVILLE",41.3834,-82.0213,4123004,821278
202006,148740,904915,1,1.25,"WNW","HOMERVILLE",41.04,-82.15,412400,829000
202006,148740,905034,1,2,"SE","HAYESVILLE",40.7495,-82.223,4044970,8213380
202006,148740,905035,1,0,"N","LOUDONVILLE",40.63,-82.23,4037800,8213800
202006,148740,905036,1,0,"N","FREDERICKSBURG",40.68,-81.87,4040800,8152200
202006,148740,905037,1,1.25,"ENE","SMITHVILLE",40.88,-81.83,4052800,8149800
202006,148740,905038,1,3.24,"S","MC ZENA",40.6534,-82.1226,4039204,827356
202006,148740,905039,1,.86,"NW","WESTLAKE",41.46,-81.93,4127600,8155800
202006,148740,905040,1,2.49,"WSW","EAST CLEVELAND",41.51,-81.57,4130600,8134200
202006,148740,905041,1,2.19,"W","CHARDON",41.5804,-81.2424,4134824,8114544
202006,148740,905042,1,1.78,"E","SOUTH RUSSELL",41.4306,-81.2956,4125836,8117736
202006,147355,887503,1,.33,"WSW","DOUGLAS PASS",39.5975,-108.8053,3935850,10848318
202006,147355,888411,1,22.39,"WSW","HIAWATHA CAMP",40.83,-109.01,4049800,109600
202006,147355,888432,1,4.88,"W","GRAND MESA",39.04,-107.96,392400,10757600
202006,147355,888433,1,5.82,"W","HAYDEN",40.49,-107.36,4029400,10721600
202006,147355,888434,1,4.23,"NW","SNOWMASS",39.37,-107.04,3922200,1072400
202006,147355,889187,1,2.19,"NNW","CRAIG",40.5489,-107.5473,4032934,10732838
202006,147355,889189,1,4.62,"N","ELK PARK",37.7466,-107.6624,3744796,10739744
202006,147355,889189,2,4.23,"N","ELK PARK",37.7408,-107.661,3744448,10739660
202006,147355,889189,3,5.82,"NE","ELK PARK",37.7469,-107.6054,3744814,10736324
202006,147355,889189,4,5.75,"SE","SILVERTON",37.7529,-107.6079,3745174,10736474
202006,147355,889190,1,5.99,"W","TELLURIDE",37.9313,-107.7799,3755878,10746794
202006,147355,889190,2,5.9,"W","TELLURIDE",37.9302,-107.7783,3755812,10746698
202006,147355,889190,3,5.31,"W","TELLURIDE",37.9399,-107.7667,3756394,10746002
202006,147355,889190,4,5.4,"W","TELLURIDE",37.9421,-107.7678,3756526,10746068
202006,147355,890829,1,8.34,"E","SKYWAY",39.0423,-107.9649,392538,10757894
202006,147355,890830,1,5.96,"WNW","CRAIG",40.542,-107.6397,4032520,10738382
202006,147356,886190,1,8.74,"NNW","MEXICAN HAT",37.27,-109.92,3716200,10955200
202006,147356,886191,1,.55,"E","BLUFF",37.28,-109.56,3716800,10933600
202006,147356,886193,1,.69,"S","BLANDING",37.61,-109.48,3736600,10928800
202006,147356,886196,1,.69,"S","BLANDING",37.61,-109.48,3736600,10928800
202006,147356,886197,1,.69,"N","MONTICELLO",37.88,-109.35,3752800,10921000
202006,147356,886199,1,8.74,"NNW","MEXICAN HAT",37.27,-109.92,3716200,10955200
202006,147356,886199,2,8.58,"NNW","MEXICAN HAT",37.2679,-109.9193,3716074,10955158
202006,147356,886199,3,8.61,"NNW","MEXICAN HAT",37.2678,-109.921,3716068,10955260
202006,147356,886199,4,8.74,"NNW","MEXICAN HAT",37.2697,-109.9211,3716182,10955266
202006,147356,886203,1,14.47,"SW","DRAGON",39.63,-109.27,3937800,10916200
202006,147356,886205,1,24.16,"SSW","DRAGON",39.47,-109.29,3928200,10917400
202006,147356,886206,1,39.91,"SSW","OURAY",39.55,-109.91,3933000,10954600
202006,147356,886212,1,21.51,"SW","DRAGON",39.58,-109.39,3934800,10923400
202006,147356,886214,1,17.91,"NNE","JENSEN",40.62,-109.24,4037200,10914400
202006,147356,886216,1,17.9,"ESE","DUTCH JOHN",40.86,-109.1,4051600,1096000
202006,147356,887497,1,1.64,"E","MONTICELLO",37.87,-109.32,3752200,10919200
202006,147356,887502,1,17.41,"WNW","BLANDING",37.74,-109.76,3744400,10945600
202006,147357,889045,1,1.34,"E","TWO RIVERS COAST GUARD STATION (C58W3)",44.153,-87.5332,449180,8731992
202006,147357,889047,1,2.19,"E","CLEVELAND",43.9246,-87.7064,4355476,8742384
202006,147357,889048,1,74.31,"S","PESHTIGO POINT",43.8954,-87.7211,4353724,8743266
202006,147358,887751,1,0,"N","HETTINGER ARPT",46.02,-102.65,461200,10239000
202006,147358,887752,1,0,"N","VENTURA",46,-99.55,4600,9933000
202006,147358,887753,1,4.37,"W","ASHLEY",46.04,-99.46,462400,9927600
202006,147358,887754,1,2.49,"WNW","ASHLEY",46.0404,-99.4196,462424,9925176
202006,147358,887754,2,2.34,"WNW","ASHLEY",46.0415,-99.4158,462490,9924948
202006,147358,887756,1,13.93,"E","ASHLEY",46.02,-99.08,461200,994800
202006,147358,887761,1,12.47,"S","STEELE",46.67,-99.92,4640200,9955200
202006,147358,887762,1,15.95,"SSE","STEELE",46.64,-99.76,4638400,9945600
202006,147358,887763,1,5.04,"SSE","REGENT",46.35,-102.52,4621000,10231200
202006,147358,887764,1,.69,"S","MOTT",46.37,-102.32,4622200,10219200
202006,147358,887765,1,10.36,"N","ZEELAND",46.12,-99.83,467200,9949800
202006,147358,887766,1,11.75,"WNW","MERRICOURT",46.26,-98.98,4615600,9858800
202006,147358,887766,2,11.48,"WNW","MERRICOURT",46.2629,-98.9723,4615774,9858338
202006,147358,887767,1,11.78,"S","DAWSON",46.7,-99.75,4642000,9945000
202006,147358,887768,1,11.1,"S","DAWSON",46.71,-99.75,4642600,9945000
202006,147358,887769,1,4.8,"SW","EDGELEY",46.32,-98.77,4619200,9846200
202006,147358,887770,1,4.8,"SW","EDGELEY",46.32,-98.77,4619200,9846200
202006,147358,887771,1,.47,"E","(JMS)JAMESTOWN MUNI",46.93,-98.67,4655800,9840200
202006,147358,887772,1,14.52,"N","ELGIN",46.61,-101.86,4636600,10151600
202006,147358,887773,1,17.28,"N","ELGIN",46.65,-101.86,4639000,10151600
202006,147358,887774,1,0,"N","BARLOW",47.57,-99.15,4734200,999000
202006,147358,887775,1,2.27,"NNW","CATHAY",47.58,-99.42,4734800,9925200
202006,147358,887776,1,2.46,"ENE","NEW SALEM",46.86,-101.37,4651600,10122200
202006,147358,887777,1,7.27,"SSW","PRICE",46.99,-101.03,4659400,1011800
202006,147358,887778,1,.84,"NE","LA MOURE",46.36,-98.29,4621600,9817400
202006,147358,887780,1,1.17,"SW","BLOOM",46.91,-98.64,4654600,9838400
202006,147358,887781,1,.84,"SW","ELLENDALE ARPT",46.01,-98.53,46600,9831800
202006,147358,887782,1,5.38,"SW","FLASHER",46.3864,-101.2951,4623184,10117706
202006,147358,887783,1,5.2,"SSE","ELLENDALE",45.9374,-98.46,4556244,9827600
202006,147359,886182,1,1.01,"E","MERTON",43.15,-88.3,439000,8818000
202006,147359,886183,1,.69,"N","OCONOMOWOC LAKE",43.09,-88.5,435400,8830000
202006,147359,886184,1,0,"N","SUMMIT CORNERS",43.08,-88.47,434800,8828200
202006,147359,886185,1,.86,"SE","MERTON",43.14,-88.31,438400,8818600
202006,147359,886189,1,1.87,"SSW","NORTH FOND DU LAC",43.7967,-88.4989,4347802,8829934
202006,147359,886189,2,1.55,"SSE","PEEBLES",43.7984,-88.3617,4347904,8821702
202006,147359,886189,3,1.14,"SE","BYRON",43.6387,-88.4333,4338322,8825998
202006,147359,886189,4,3.23,"SW","OAK CENTER",43.6348,-88.6425,4338088,8838550
202006,147359,886195,1,.42,"ESE","COLUMBUS",43.3268,-89.0129,4319608,89774
202006,147359,886195,2,.63,"NE","COLUMBUS",43.3354,-89.01,4320124,89600
202006,147359,886195,3,1.44,"NNE","COLUMBUS",43.3498,-89.0112,4320988,89672
202006,147359,886195,4,1.84,"NW","COLUMBUS",43.3483,-89.0466,4320898,892796
202006,147359,886195,5,1.06,"SW","COLUMBUS",43.3184,-89.0337,4319104,892022
202006,147360,886186,1,4.02,"ESE","ROCHERT",46.88,-95.64,4652800,9538400
202006,147360,886187,1,6.73,"ESE","ROCHERT",46.86,-95.59,4651600,9535400
202006,147361,886188,1,8.3,"W","HOFFMAN",45.81,-95.97,4548600,9558200
202006,147362,886192,1,.46,"W","MANVEL",48.07,-97.18,484200,9710800
202006,147363,886194,1,.83,"SE","EAST GRAND FORKS",47.92,-97.01,4755200,97600
202006,147395,886365,1,3,"NW","LANCASTER",48.9007,-96.8667,4854042,9652002
202006,147395,886365,2,15,"ENE","LANCASTER",48.9531,-96.5148,4857186,9630888
202006,147395,886365,3,15,"E","LANCASTER",48.87,-96.49,4852200,9629400
202006,147395,886365,4,2,"SW","LANCASTER",48.8495,-96.8511,4850970,9651066
202006,147396,886381,1,4.99,"N","VAITOGI",-14.3289,-170.7132,-1419734,17042792
202006,147396,886381,2,5.87,"NNW","VAITOGI",-14.3169,-170.7184,-1419014,17043104
202006,147396,886381,3,5.84,"NNW","VAITOGI",-14.3241,-170.7383,-1419446,17044298
202006,147396,886381,4,4.64,"NNW","VAITOGI",-14.3401,-170.7312,-1420406,17043872
202006,147397,886380,1,.87,"NW","LIBERTY",39.64,-84.94,3938400,8456400
202006,147398,886382,1,.69,"S","WAPAKONETA ARPT",40.49,-84.3,4029400,8418000
202006,147398,886383,1,1.72,"ESE","MC MORRAN",40.37,-83.82,4022200,8349200
202006,147398,886384,1,2.33,"SSW","BOSTON",39.19,-83.54,3911400,8332400
202006,147398,886385,1,.53,"W","GREENFIELD",39.35,-83.39,3921000,8323400
202006,147398,886386,1,0,"N","(OSU)OH ST UNIV ARPT",40.08,-83.07,404800,834200
202006,147398,886388,1,2.03,"NNW","ANDERSON",39.3786,-83.0791,3922716,834746
202006,147398,886388,2,.46,"N","ANDERSONVILLE",39.4366,-83,3926196,8300
202006,147398,886502,1,3.29,"E","WEST UNION",38.7981,-83.4689,3847886,8328134
202006,147398,886503,1,.52,"E","WAPAKONETA",40.57,-84.19,4034200,8411400
202006,147398,886504,1,1.78,"E","UNIOPOLIS",40.5983,-84.0461,4035898,842766
202006,147398,886505,1,.52,"E","WAYNESFIELD",40.6,-83.97,4036000,8358200
202006,147398,886506,1,1.68,"E","UNIOPOLIS",40.6014,-84.048,4036084,842880
202006,147398,886507,1,.52,"W","UNIOPOLIS",40.6,-84.09,4036000,845400
202006,147398,886508,1,0,"N","MT OREB",39.03,-83.92,391800,8355200
202006,147398,886509,1,.88,"NW","RIPLEY",38.74,-83.84,3844400,8350400
202006,147398,886510,1,.87,"SW","FURMANDALE",39.32,-84.54,3919200,8432400
202006,147398,886511,1,0,"N","MINGO",40.2,-83.63,4012000,8337800
202006,147398,886512,1,2.33,"NNE","URBANA WELLER ARPT",40.11,-83.66,406600,8339600
202006,147398,886513,1,2.1,"SE","KINGS CREEK",40.15,-83.69,409000,8341400
202006,147398,886514,1,3.48,"SW","CABLE",40.13,-83.67,407800,8340200
202006,147398,886516,1,1.06,"E","DONNELSVILLE",39.92,-83.93,3955200,8355800
202006,147398,886521,1,1.07,"W","LUMBERTON",39.55,-83.87,3933000,8352200
202006,147398,886522,1,.5,"ENE","OAKLAND",39.4822,-83.911,3928932,8354660
202006,147398,886523,1,.69,"N","BLANCHESTER",39.29,-83.98,3917400,8358800
202006,147398,886524,1,1.74,"ENE","(ILN)WILMINGTON ARPK",39.44,-83.77,3926400,8346200
202006,147398,886525,1,0,"N","DELAWARE",40.3,-83.07,4018000,834200
202006,147398,886526,1,2.96,"SE","AFRICA",40.15,-82.91,409000,8254600
202006,147398,886527,1,1.48,"SSE","AFRICA",40.16,-82.94,409600,8256400
202006,147398,886528,1,1.73,"ENE","AFRICA",40.19,-82.92,4011400,8255200
202006,148740,905043,1,2.58,"ESE","COPLEY",41.0806,-81.5877,414836,8135262
202006,148740,905044,1,.52,"W","KENT",41.15,-81.36,419000,8121600
202006,148740,905045,1,.87,"SE","HIGHLAND PARK",40.82,-81.51,4049200,8130600
202006,148740,905046,1,1.42,"WSW","YOUNGSTOWN MUNI ARPT",41.2622,-80.7052,4115732,8042312
202006,148741,896108,1,3.15,"ESE","WESLEYVILLE",42.1104,-79.9445,426624,7956670
202006,148741,896110,1,1.22,"W","TURNERSVILLE",41.519,-80.5036,4131140,8030216
202006,148741,896110,2,1.25,"NW","HARMONSBURG",41.6804,-80.3498,4140824,8020988
202006,148741,896111,1,.69,"N","CONNEAUTVILLE",41.76,-80.37,4145600,8022200
202006,148742,896055,1,2.08,"NNE","RENO BEACH",41.699,-83.259,4141940,8315540
202006,148742,896056,1,2.08,"NNE","RENO BEACH",41.699,-83.259,4141940,8315540
202006,148742,896059,1,1.7,"NE","MAUMEE BAY",41.694,-83.473,4141640,8328380
202006,148742,896064,1,15.68,"ESE","RENO BEACH",41.547,-83.015,4132820,83900
202006,148742,896065,1,5.49,"WSW","THE ISLANDS",41.629,-82.841,4137740,8250460
202006,148742,896066,1,10.19,"W","VERMILION",41.401,-82.545,4124060,8232700
202006,148742,896067,1,8.81,"WNW","AVON POINT",41.481,-82.195,4128860,8211700
202006,148742,896068,1,.86,"NW","VERMILION",41.4272,-82.3636,4125632,8221816
202006,148742,896080,1,14.52,"WSW","WILLOWICK",41.55,-81.765,4133000,8145900
202006,148742,896081,1,15.71,"NE","AVON POINT",41.615,-81.821,4136900,8149260
202006,148742,897678,1,11.47,"NNE","RENO BEACH",41.826,-83.194,4149560,8311640
202006,148742,897679,1,2.44,"WSW","GENEVA ON THE LAKE",41.859,-80.975,4151540,8058500
202006,148742,897680,1,4.78,"W","RIPLEY",42.258,-79.792,4215480,7947520
202006,148750,896147,1,1.06,"NW","HARRISTOWN",39.8611,-89.094,3951666,895640
202006,148750,896147,2,1.64,"ENE","HARRISTOWN",39.8631,-89.0542,3951786,893252
202006,148750,896147,3,1.69,"ESE","HARRISTOWN",39.8394,-89.0514,3950364,893084
202006,148750,896147,4,1.45,"SW","HARRISTOWN",39.8336,-89.0972,3950016,895832
202006,148750,896153,1,1.28,"N","STONINGTON",39.6485,-89.1997,3938910,8911982
202006,148750,896153,2,1.51,"NNE","STONINGTON",39.6496,-89.1874,3938976,8911244
202006,148750,896153,3,.98,"NE","STONINGTON",39.6414,-89.189,3938484,8911340
202006,148750,896153,4,.76,"N","STONINGTON",39.6409,-89.2014,3938454,8912084
202006,148750,896155,1,2.54,"WSW","DUVALL",39.4588,-88.8154,3927528,8848924
202006,148750,896155,2,.93,"SW","SHELBYVILLE",39.4125,-88.8145,3924750,8848870
202006,148750,896155,3,.54,"SE","SHELBYVILLE",39.414,-88.7936,3924840,8847616
202006,148750,896155,4,1.45,"WSW","DUVALL",39.4654,-88.7966,3927924,8847796
202006,148750,896157,1,0,"N","AUBURN",39.58,-89.75,3934800,8945000
202006,148750,896159,1,0,"W","GLENARM",39.62,-89.65,3937200,8939000
202006,148750,896161,1,.53,"SSE","CIMIC",39.573,-89.6462,3934380,8938772
202006,148750,896162,1,0,"W","GLENARM",39.62,-89.65,3937200,8939000
202006,148750,896163,1,2.07,"S","CHATHAM",39.64,-89.7,3938400,8942000
202006,148750,896164,1,2,"E","CHATHAM",39.67,-89.6624,3940200,8939744
202006,148750,896166,1,0,"W","GALESBURG",40.95,-90.37,4057000,9022200
202006,148750,896167,1,0,"E","EAST GALESBURG",40.95,-90.3,4057000,9018000
202006,148750,896168,1,1.99,"ENE","BEARSDALE",39.895,-88.988,3953700,8859280
202006,148750,896168,2,1.68,"S","OREANA",39.9058,-88.8678,3954348,8852068
202006,148750,896168,3,2.07,"NNE","MT ZION",39.7987,-88.8692,3947922,8852152
202006,148750,896168,4,.36,"WNW","KNIGHTS",39.8018,-88.9863,3948108,8859178
202006,148750,896172,1,2.51,"S","OAK HILL",40.7438,-89.8656,4044628,8951936
202006,148750,896172,2,.64,"WSW","KRAMM",40.7466,-89.7914,4044796,8947484
202006,148750,896172,3,2.34,"ENE","HANNA CITY AF STATIO",40.7156,-89.7903,4042936,8947418
202006,148750,896172,4,1.66,"WNW","HANNA CITY AF STATIO",40.7108,-89.8583,4042648,8951498
202006,148750,896173,1,.71,"WSW","MANSFIELD",40.2176,-88.5131,4013056,8830786
202006,148750,896173,2,1.72,"SW","MANSFIELD",40.2015,-88.522,4012090,8831320
202006,148750,896173,3,2.25,"SE","MANSFIELD",40.1962,-88.4709,4011772,8828254
202006,148750,896173,4,1.72,"ESE","MANSFIELD",40.2099,-88.4701,4012594,8828206
202006,148750,896174,1,3.35,"W","MAHOMET",40.2088,-88.4624,4012528,8827744
202006,148750,896174,2,3.31,"W","MAHOMET",40.1936,-88.4621,4011616,8827726
202006,148750,896174,3,1.14,"SW","MAHOMET",40.1869,-88.4132,4011214,8824792
202006,148750,896174,4,.63,"W","MAHOMET",40.201,-88.4119,4012060,8824714
202006,147398,886529,1,1.61,"SSW","OAKLAND",39.5803,-82.7861,3934818,8247166
202006,147398,886530,1,.02,"SE","LANCASTER",39.7198,-82.5998,3943188,8235988
202006,147398,886531,1,2.34,"NNE","PLEASANT VIEW",39.7007,-83.6112,3942042,8336672
202006,147398,886532,1,1.48,"NNW","DUBLIN",40.12,-83.13,407200,837800
202006,147398,886533,1,2.11,"W","DUBLIN",40.1,-83.16,406000,839600
202006,147398,886534,1,0,"N","UPPER ARLINGTON",40.03,-83.07,401800,834200
202006,147398,886535,1,.69,"NNE","MARBLE CLIFF",39.9899,-83.0674,3959394,834044
202006,147398,886536,1,.97,"SSE","UPPER ARLINGTON",40.0165,-83.065,40990,833900
202006,147398,886537,1,.51,"E","SOUTH LEBANON",39.3711,-84.2106,3922266,8412636
202006,147398,886538,1,1.07,"E","MAINEVILLE",39.32,-84.2,3919200,8412000
202006,147398,886539,1,2.1,"NE","FT LORAMIE",40.37,-84.34,4022200,8420400
202006,147398,886540,1,3.45,"N","NEW DOVER",40.3,-83.3,4018000,8318000
202006,147398,886541,1,2.68,"WNW","ST PATRICKS",40.3904,-84.3233,4023424,8419398
202006,147398,886542,1,2.1,"NE","FT LORAMIE",40.37,-84.34,4022200,8420400
202006,147398,886543,1,0,"N","FT LORAMIE",40.35,-84.37,4021000,8422200
202006,147398,886544,1,1.79,"SE","FT LORAMIE",40.3351,-84.3422,4020106,8420532
202006,147398,886545,1,1.1,"NW","DRY RUN",38.7894,-83.0666,3847364,833996
202006,147398,886546,1,.66,"W","OTWAY",38.8686,-83.1922,3852116,8311532
202006,147398,886547,1,.88,"SW","PURDY CORNERS",38.86,-82.86,3851600,8251600
202006,147398,886548,1,1.15,"WSW","RARDEN",38.9165,-83.251,3854990,8315060
202006,147398,886683,1,0,"N","FREDONIA",40.15,-82.52,409000,8231200
202006,147398,886684,1,1.27,"ENE","LOGAN",39.54,-82.4,3932400,8224000
202006,147398,886685,1,.33,"SSW","COLES PARK",38.7757,-83.0225,3846542,831350
202006,147398,886686,1,.94,"SE","HEBRON",39.9604,-82.4873,3957624,8229238
202006,147398,886687,1,.53,"E","COMMERCIAL PT",39.77,-83.06,3946200,833600
202006,147398,886688,1,.53,"E","VALLEY CROSSING",39.88,-82.94,3952800,8256400
202006,147398,886689,1,2.11,"SW","KINGSTON",39.45,-82.95,3927000,8257000
202006,147398,886690,1,1.28,"ENE","DUKE",39.01,-83.2,39600,8312000
202006,147398,886691,1,.87,"NE","MARBLE CLIFF",39.99,-83.06,3959400,833600
202006,147398,886692,1,1.27,"WNW","METZGER",39.39,-82.99,3923400,8259400
202006,147398,886693,1,2.98,"NW","PLEASANT VLY",39.4,-83.07,3924000,834200
202006,147398,886694,1,.43,"NNE","PLEASANT VLY",39.3755,-83.0261,3922530,831566
202006,147398,886695,1,1.75,"SE","LATTASVILLE",39.33,-83.18,3919800,8310800
202006,147398,886696,1,.53,"W","AUSTIN",39.43,-83.23,3925800,8313800
202006,147398,886697,1,0,"N","GEORGESVILLE",39.88,-83.22,3952800,8313200
202006,147398,886708,1,1.07,"E","LEESBURG",39.35,-83.55,3921000,8333000
202006,147398,886709,1,0,"N","LATHAM",39.1,-83.25,396000,8315000
202006,147398,886710,1,1.83,"WSW","HIGHLAND",39.3364,-83.6293,3920184,8337758
202006,147398,886711,1,.69,"S","HIGHLAND",39.34,-83.6,3920400,8336000
202006,147398,886713,1,.53,"E","SAMANTHA",39.28,-83.59,3916800,8335400
202006,147398,886715,1,.53,"E","SAMANTHA",39.28,-83.59,3916800,8335400
202006,147398,886717,1,.69,"S","CAREYTOWN",39.29,-83.63,3917400,8337800
202006,147398,886718,1,1.51,"E","HILLSBORO",39.1967,-83.5921,3911802,8335526
202006,147398,886722,1,1.32,"NE","HILLSBORO",39.215,-83.6048,3912900,8336288
202006,147398,886725,1,2.23,"E","BOSTON",39.2165,-83.4786,3912990,8328716
202006,147398,886728,1,.87,"NE","NEW MARKET",39.14,-83.66,398400,8339600
202006,147398,886729,1,.54,"E","HILLSBORO",39.2,-83.61,3912000,8336600
202006,147398,886730,1,.69,"N","PLUMWOOD",40.01,-83.42,40600,8325200
202006,147398,886731,1,1.74,"NW","MADISON LAKE",39.89,-83.4,3953400,8324000
202006,147398,886732,1,.55,"W","FOREST",40.7999,-83.5106,4047994,8330636
202006,147398,886733,1,1.26,"NNE","DANVILLE",39.1455,-83.7374,398730,8344244
202006,147398,886736,1,.69,"S","RUSHSYLVANIA",40.46,-83.67,4027600,8340200
202006,147398,886738,1,.87,"NW","KENTON",40.66,-83.61,4039600,8336600
202006,147398,886739,1,.87,"SE","FLETCHER",40.14,-84.11,408400,846600
202006,147398,886740,1,0,"N","ADA",40.77,-83.82,4046200,8349200
202006,147398,886741,1,1.07,"W","BEVIS",39.23,-84.6,3913800,8436000
202006,147398,886742,1,2.1,"S","NEW PARIS",39.8196,-84.7785,3949176,8446710
202006,147398,886747,1,1.27,"ESE","NEW BALTIMORE",39.26,-84.63,3915600,8437800
202006,147398,886748,1,.87,"NW","EVANSTON",39.96,-84.21,3957600,8412600
202006,147398,886749,1,.53,"W","PLEASANT HILL",40.05,-84.36,403000,8421600
202006,147398,886750,1,.6,"S","TIPP CITY",39.9613,-84.1701,3957678,8410206
202006,147398,886751,1,1.26,"ESE","EVANSTON",39.94,-84.18,3956400,8410800
202006,147398,888918,1,0,"N","(OSU)OH ST UNIV ARPT",40.08,-83.07,404800,834200
202006,147398,891314,1,1.05,"N","LINWORTH",40.0952,-83.0495,405712,832970
202006,147398,891314,2,.77,"NNE","LINWORTH",40.0896,-83.0427,405376,832562
202006,147398,891318,1,1.35,"NNE","RIVERLEA",40.0967,-83.0166,405802,83996
202006,147398,891320,1,.99,"SSW","GRATIOT CLOUDNINE AR",39.9369,-82.2375,3956214,8214250
202006,147398,891343,1,.8,"ESE","HANFORD",39.9448,-82.9165,3956688,8254990
202006,147398,891355,1,1.27,"NW","DAYTON",39.7638,-84.1958,3945828,8411748
202006,147398,891356,1,.5,"NNW","FT LORAMIE",40.3568,-84.3734,4021408,8422404
202006,147398,891357,1,.81,"SSW","TROY",40.0386,-84.2036,402316,8412216
202006,147398,891420,1,1.35,"NNW","LAGONDA",39.948,-83.7798,3956880,8346788
202006,147402,886394,1,1.63,"WSW","ATLANTIC HIGHLANDS",40.4135,-74.0598,4024810,743588
202006,147402,886394,2,.97,"NW","NAVESINK",40.409,-74.0441,4024540,742646
202006,147402,886394,3,.71,"SW","ATLANTIC HIGHLANDS",40.4131,-74.04,4024786,742400
202006,147402,886394,4,1.52,"W","ATLANTIC HIGHLANDS",40.4182,-74.0588,4025092,743528
202006,147403,886395,1,.44,"NNE","BLADES",38.6362,-75.6184,3838172,7537104
202006,147403,886395,2,.58,"NNE","BLADES",38.6373,-75.6147,3838238,7536882
202006,147403,886395,3,1.26,"N","BLADES",38.6482,-75.6192,3838892,7537152
202006,147403,886395,4,1.16,"N","BLADES",38.6466,-75.6225,3838796,7537350
202006,147404,886399,1,12.79,"SE","FREEPORT",28.84,-95.16,2850400,959600
202006,147438,886668,1,1.4,"E","SHEBOYGAN",43.75,-87.692,4345000,8741520
202006,147438,886669,1,4.17,"NNW","CUDAHY",43.005,-87.884,43300,8753040
202006,147441,886754,1,2.86,"NW","RICHMOND ARPT",39.7776,-84.89,3946656,8453400
202006,147441,886756,1,1.02,"SE","RICHMOND",39.8191,-84.887,3949146,8453220
202006,147441,886762,1,2.58,"S","RICHMOND",39.7927,-84.9006,3947562,8454036
202006,147442,886765,1,1.75,"WNW","RICEDALE",38.94,-84.6,3856400,8436000
202006,147442,886766,1,.54,"W","DEVON",38.97,-84.61,3858200,8436600
202006,147442,887060,1,3.14,"SSE","CHATHAM",38.6802,-83.9918,3840812,8359508
202006,147442,887061,1,1.48,"SSE","MORANBURG",38.65,-83.79,3839000,8347400
202006,147442,887062,1,2.63,"NW","RICEDALE",38.96,-84.6,3857600,8436000
202006,147442,887063,1,.88,"NW","RICHWOOD",38.93,-84.63,3855800,8437800
202006,147442,887064,1,.69,"S","FLORENCE",38.97,-84.62,3858200,8437200
202006,147442,887065,1,0,"N","FALMOUTH",38.67,-84.33,3840200,8419800
202006,147442,887066,1,1.09,"E","BERLIN",38.6997,-84.1497,3841982,848982
202006,147442,887067,1,1.58,"NNE","BERLIN",38.7205,-84.1569,3843230,849414
202006,147442,887068,1,1.14,"ESE","LENOXBURG",38.7255,-84.1996,3843530,8411976
202006,147442,887069,1,.5,"N","POWERSVILLE",38.6571,-84.1212,3839426,847272
202006,147442,887070,1,2.01,"SW","JOHNSVILLE",38.7294,-84.1765,3843764,8410590
202006,147442,887071,1,.18,"NNE","WOOLCOTT",38.7325,-84.0991,3843950,845946
202006,147442,887072,1,.75,"SSE","BRADFORD",38.7702,-84.144,3846212,848640
202006,147442,887073,1,2,"SSW","CHATHAM",38.6924,-84.0316,3841544,841896
202006,147442,887074,1,2.6,"SE","CHATHAM",38.6981,-83.9807,3841886,8358842
202006,147442,887075,1,.88,"SE","AUGUSTA",38.76,-83.99,3845600,8359400
202006,147442,887076,1,.38,"SE","SOUTH HIGGINSPORT",38.7762,-83.9648,3846572,8357888
202006,147442,887077,1,1.5,"NNE","STONEWALL",38.6412,-84.014,3838472,84840
202006,147442,887078,1,2.62,"ESE","BROOKSVILLE",38.6603,-84.0285,3839618,841710
202006,147442,887079,1,2.71,"ESE","BROOKSVILLE",38.6669,-84.0226,3840014,841356
202006,147442,887080,1,.69,"S","CHATHAM",38.71,-84.02,3842600,841200
202006,147442,887081,1,2.34,"NNE","STONEWALL",38.65,-84,3839000,8400
202006,147446,886807,1,0,"N","MIDDLEBOURNE",39.5,-80.9,3930000,8054000
202006,147446,886808,1,.69,"N","NEW HAVEN",38.99,-81.97,3859400,8158200
202006,147446,886809,1,0,"N","MAXINE",38.13,-81.62,387800,8137200
202006,147446,886810,1,1.48,"SSE","GUYAN ESTATES",38.4,-82.29,3824000,8217400
202006,147446,886811,1,1.38,"S","POLARD",39.5,-80.85,3930000,8051000
202006,147446,886812,1,.69,"N","PEYTONA",38.14,-81.68,388400,8140800
202006,147446,886813,1,1.38,"N","MAXINE",38.15,-81.62,389000,8137200
202006,147446,886814,1,.54,"W","SPENCER",38.8,-81.36,3848000,8121600
202006,147446,886815,1,0,"N","BELO",37.78,-82.25,3746800,8215000
202006,147446,886816,1,1.29,"WSW","BIAS",37.74,-82.22,3744400,8213200
202006,147446,891018,1,1.61,"SE","(PKB)WILSON FLD PRKR",39.3331,-81.4092,3919986,8124552
202006,148049,891459,1,2.62,"ESE","(FNT)BISHOP ARPT FLI",42.96,-83.7,4257600,8342000
202006,148049,891460,1,0,"N","CORUNNA",42.98,-84.12,4258800,847200
202006,148049,891461,1,2.53,"W","BENNINGTON",42.93,-84.3,4255800,8418000
202006,148049,891462,1,2.45,"NE","PITTSBURG",42.9,-84.18,4254000,8410800
202006,148049,900674,1,0,"N","(MTC)MT CLEMENS/SELF",42.6,-82.83,4236000,8249800
202006,148050,891467,1,2.76,"NW","METROPOLITAN BEACH",42.611,-82.8343,4236660,8250058
202006,148050,891471,1,.53,"SSE","METROPOLITAN BEACH",42.5728,-82.7963,4234368,8247778
202006,148051,891473,1,0,"N","SAGINAW BAY LIGHT",43.81,-83.72,4348600,8343200
202006,148051,891474,1,59.26,"S","HARBOR BEACH",43.007,-82.422,43420,8225320
202006,148056,891514,1,.69,"S","CLOVER HILL",35.71,-84.05,3542600,843000
202006,148056,891515,1,1.13,"E","RED HILL",35.23,-85.5,3513800,8530000
202006,148056,891517,1,2.07,"S","DILL",35.55,-85.2,3533000,8512000
202006,148056,891518,1,2.98,"NNW","OAK HILL",35.77,-84.65,3546200,8439000
202006,148056,891519,1,.89,"SE","UNION GROVE",35.59,-84.57,3535400,8434200
202006,148056,891521,1,2.17,"SE","DYLLIS",35.95,-84.34,3557000,8420400
202006,148057,891525,1,2.37,"ESE","MURPHY",35.07,-83.99,354200,8359400
202006,148058,891528,1,.56,"E","FRIENDS STATION",36.1,-83.57,366000,8334200
202006,148058,891529,1,1.78,"NE","EUREKA",35.29,-84.85,3517400,8451000
202006,148058,891530,1,.56,"E","WHITES MILL",35.37,-84.69,3522200,8441400
202006,148058,891531,1,.56,"W","NEW LINE",36.2,-83.34,3612000,8320400
202006,148058,891532,1,1.31,"ENE","RUSSELLVILLE",36.26,-83.18,3615600,8310800
202006,148058,891533,1,.56,"E","ATHENS",35.45,-84.59,3527000,8435400
202006,148058,891534,1,1.38,"S","OAK GROVE",36.53,-83.48,3631800,8328800
202006,148058,891535,1,2.33,"ESE","FAIRVIEW",36.37,-83.31,3622200,8318600
202006,148058,891536,1,.69,"N","MULBERRY GAP",36.59,-83.25,3635400,8315000
202006,148058,891537,1,.89,"NE","SNEEDVILLE",36.54,-83.21,3632400,8312600
202006,148058,891538,1,0,"N","TURTLETOWN",35.13,-84.35,357800,8421000
202006,148058,891539,1,1.82,"WNW","WOLF CREEK",35.93,-82.98,3555800,8258800
202006,148059,891540,1,0,"N","WELCH",32.92,-102.13,3255200,1027800
202006,148059,891541,1,0,"N","WELCH",32.92,-102.13,3255200,1027800
202006,148059,891578,1,2,"SE","LAMESA",32.7095,-101.9257,3242570,10155542
202006,148064,891561,1,0,"N","LEMMON",45.94,-102.16,4556400,1029600
202006,148065,891563,1,5,"NE","ROCKERVILLE",44.0112,-103.2889,44672,10317334
202006,148065,891564,1,4,"NE","ROCKERVILLE",44.0009,-103.3031,4454,10318186
202006,148066,891710,1,1,"ESE","RAPID CITY",44.0745,-103.2114,444470,10312684
202006,148067,891568,1,3,"NW","WASTA",44.1007,-102.4927,446042,10229562
202006,148068,891571,1,4,"SSW","REVA",45.4965,-103.1116,4529790,1036696
202006,148068,891572,1,3,"SSE","SORUM",45.4099,-102.9063,4524594,10254378
202006,148068,891573,1,3,"SSE","SORUM",45.4099,-102.9063,4524594,10254378
202006,148068,891574,1,8,"S","USTA",45.1042,-102.16,456252,1029600
202006,148068,891575,1,1,"W","RED SCAFFOLD",44.77,-101.8504,4446200,10151024
202006,148068,891576,1,8.33,"W","FAITH",45.02,-102.2,451200,10212000
202006,148068,891577,1,7.84,"W","FAITH",45.02,-102.19,451200,10211400
202006,148068,891580,1,9.69,"S","FAITH",44.89,-102.04,4453400,1022400
202006,148068,891581,1,3,"W","FAITH",45.03,-102.0914,451800,1025484
202006,148068,891583,1,5.12,"WNW","KIRLEY",44.54,-101.4,4432400,10124000
202006,148068,891584,1,9.09,"NE","MILESVILLE",44.55,-101.55,4433000,10133000
202006,148073,891586,1,15.33,"N","HULETT",44.9,-104.56,4454000,10433600
202006,148073,891590,1,5.06,"NNE","ALADDIN",44.71,-104.15,4442600,1049000
202006,148073,891592,1,1,"NE","OSHOTO",44.5902,-104.9156,4435412,10454936
202006,148074,891597,1,11.1,"ENE","RECLUSE",44.8,-105.5,4448000,10530000
202006,148074,891600,1,0,"N","SUNDANCE",44.41,-104.38,4424600,10422800
202006,148076,891609,1,5.23,"SSE","GILLETTE",44.22,-105.46,4413200,10527600
202006,148076,891610,1,9.32,"SSE","GILLETTE",44.16,-105.45,449600,10527000
202006,148076,891611,1,11.51,"WSW","OSAGE",43.91,-104.63,4354600,10437800
202006,148077,891614,1,8.47,"WNW","SPEARFISH",44.55,-104.01,4433000,104600
202006,148077,891615,1,2,"WNW","SPEARFISH",44.5011,-103.8975,4430066,10353850
202006,148077,891616,1,3,"WNW","SPEARFISH",44.5066,-103.9162,4430396,10354972
202006,148077,891617,1,1,"WNW","SPEARFISH",44.4955,-103.8787,4429730,10352722
202006,148077,891618,1,0,"N","DEADWOOD",44.38,-103.73,4422800,10343800
202006,148077,891619,1,1,"E","LEAD",44.35,-103.7498,4421000,10344988
202006,148077,891620,1,0,"N","TILFORD",44.3,-103.42,4418000,10325200
202006,148077,891621,1,1,"NNW","PIEDMONT",44.2434,-103.3977,4414604,10323862
202006,148077,891622,1,2.55,"NW","BLACK HAWK",44.18,-103.34,4410800,10320400
202006,148077,891624,1,1.47,"NNW","BLACK HAWK",44.17,-103.32,4410200,10319200
202006,148077,891625,1,0,"N","BLACK HAWK",44.15,-103.31,449000,10318600
202006,148077,891627,1,5,"S","ST ONGE",44.4776,-103.72,4428656,10343200
202006,148077,891628,1,3,"N","JOHNSON SIDING",44.1234,-103.43,447404,10325800
202006,148077,891630,1,1,"N","RAPID CITY",44.0945,-103.23,445670,10313800
202006,148077,891632,1,2,"N","RAPID CITY",44.109,-103.23,446540,10313800
202006,148077,891633,1,3,"N","RAPID CITY",44.1234,-103.23,447404,10313800
202006,148077,891636,1,3.78,"N","RAPID CITY",44.1347,-103.2278,448082,10313668
202006,148077,891638,1,3,"NNE","RAPID CITY",44.1201,-103.2069,447206,10312414
202006,148077,891640,1,3,"ESE","RAPID CITY",44.0634,-103.1742,443804,10310452
202006,148077,891641,1,0,"N","(RAP)RAPID CITY ARPT",44.05,-103.05,443000,1033000
202006,148077,891643,1,3,"SSE","RAPID CITY",44.0399,-103.2069,442394,10312414
202006,148077,891644,1,3,"NNW","SCENIC",43.8201,-102.573,4349206,10234380
202006,148077,891645,1,12.68,"ESE","SCENIC",43.72,-102.31,4343200,10218600
202006,148077,891647,1,0,"N","POTATO CREEK",43.53,-102,4331800,10200
202006,148077,891649,1,5,"S","POTATO CREEK",43.4576,-102,4327456,10200
202006,148077,891650,1,6,"ENE","MARTIN",43.2032,-101.62,4312192,10137200
202006,148077,891651,1,7.34,"SE","ST FRANCIS",43.07,-100.8,434200,10048000
202006,148078,891612,1,0,"N","STOW",42.43,-71.5,4225800,7130000
202006,148078,891613,1,0,"N","EAST SUDBURY",42.37,-71.4,4222200,7124000
202006,148078,891944,1,.12,"S","LONGMEADOW",42.0483,-72.5799,422898,7234794
202006,148078,891946,1,.86,"SW","HIGHLANDS",42.21,-72.64,4212600,7238400
202006,148665,895737,1,0,"N","BIGFORK",48.07,-114.07,484200,1144200
202006,148692,895738,1,2,"NE","ANDOVER",41.6405,-80.5426,4138430,8032556
202006,148692,895743,1,1.15,"ENE","BLAKE",41.0571,-81.8,413426,8148000
202006,148692,895743,2,2.06,"NNE","WADSWORTH",41.0579,-81.7362,413474,8144172
202006,148692,895745,1,2.31,"S","SHARON CENTER",41.0667,-81.7332,414002,8143992
202006,148692,895747,1,2.12,"SW","SOUTH RUSSELL",41.4109,-81.362,4124654,8121720
202006,148692,895748,1,5,"E","BAINBRIDGE",41.38,-81.2336,4122800,8114016
202006,148692,895754,1,1.16,"SSW","AKRON CITY RES",41.3635,-81.2245,4121810,8113470
202006,148692,895754,2,1.76,"ESE","AKRON CITY RES",41.3666,-81.1911,4121996,8111466
202006,148692,895757,1,1.06,"E","MONTROSE",41.1275,-81.61,417650,8136600
202006,148692,895757,2,1.41,"N","FAIRLAWN",41.1404,-81.5804,418424,8134824
202006,148692,895763,1,2.03,"SSW","FREEDOM LIBERTY ARPT",41.2045,-81.1893,4112270,8111358
202006,148692,895764,1,0,"N","SYCAMORE",40.95,-83.17,4057000,8310200
202006,148692,895765,1,0,"N","CENTERBURG",40.3,-82.7,4018000,8242000
202006,148692,895774,1,0,"N","BERLIN",40.57,-81.8,4034200,8148000
202006,148692,895774,2,.63,"SW","TRAIL",40.5739,-81.7289,4034434,8143734
202006,148692,895774,3,.61,"ENE","WALNUT CREEK",40.5318,-81.7186,4031908,8143116
202006,148692,895774,4,.94,"ENE","CHARM",40.5249,-81.7834,4031494,8147004
202006,148692,895775,1,.5,"SSW","MORELAND",40.7135,-81.934,4042810,8156040
202006,148692,895775,2,1.47,"NE","MAYSVILLE",40.7121,-81.7769,4042726,8146614
202006,148692,895775,3,4.32,"NNW","DOYLESTOWN",41.0273,-81.713,411638,8142780
202006,148692,895775,4,4.81,"NNE","CRESTON",41.0464,-81.8525,412784,8151150
202006,148692,895775,5,1.83,"ESE","LATTASBURG",40.8671,-82.0695,4052026,824170
202006,148694,895766,1,.86,"NE","BETHESDA",42.99,-88.27,4259400,8816200
202006,148694,895766,2,2.41,"E","BETHESDA",42.983,-88.2325,4258980,8813950
202006,148695,895767,1,.96,"SW","FOSTORIA",41.1588,-83.4109,419528,8324654
202006,148696,895768,1,.41,"SSE","MT VERNON",40.3943,-82.4777,4023658,8228662
202006,148698,895773,1,2.3,"NNW","BLOOMVILLE",41.0811,-82.9959,414866,8259754
202006,148710,895818,1,.35,"E","CHERRY PT",39.7999,-87.7134,3947994,8742804
202006,148710,895818,2,.61,"ENE","RAVEN",39.8039,-87.5396,3948234,8732376
202006,148710,895818,3,4.14,"SE","LOGAN",39.6877,-87.5448,3941262,8732688
202006,148710,895818,4,2.29,"SSW","HORACE",39.6921,-87.7233,3941526,8743398
202006,148710,895819,1,1.96,"WSW","VILLA GROVE",39.8575,-88.2032,3951450,8812192
202006,148710,895819,2,1.48,"ESE","VILLA GROVE",39.8608,-88.1449,3951648,888694
202006,148710,895819,3,1.64,"E","CAMARGO",39.8035,-88.1394,3948210,888364
202006,148710,895819,4,1.5,"SE","WEST RIDGE",39.8059,-88.1984,3948354,8811904
202006,148710,895820,1,0,"W","SMITHFIELD",40.47,-90.28,4028200,9016800
202006,148710,895822,1,0,"E","DECATUR",39.85,-88.95,3951000,8857000
202006,148710,895823,1,2,"E","EDGAR",39.75,-87.6624,3945000,8739744
202006,148716,895883,1,2.47,"SW","STANLEY CORNERS",42.2,-85.17,4212000,8510200
202006,148716,895884,1,0,"N","SCHOOLCRAFT",42.12,-85.63,427200,8537800
202006,148826,906210,1,1.74,"WSW","HOLT",39.44,-94.38,3926400,9422800
202006,148826,906211,1,4.08,"WNW","DODSON",38.9947,-94.6035,3859682,9436210
202006,148826,906212,1,1.48,"NNE","BLUE SPGS",39.04,-94.27,392400,9416200
202006,148826,906213,1,3.86,"NE","LAKE LOTAWANA",38.94,-94.27,3856400,9416200
202006,148826,906214,1,.87,"SE","RICHMOND",39.27,-93.97,3916200,9358200
202006,148826,906215,1,1.08,"E","ARCHIE",38.48,-94.35,3828800,9421000
202006,148826,906216,1,2.97,"NNE","WARRENSBURG",38.81,-93.73,3848600,9343800
202006,148826,906217,1,0,"N","MARYVILLE",40.35,-94.87,4021000,9452200
202006,148826,906218,1,1.27,"ENE","LAKE WAUKOMIS",39.24,-94.7,3914400,9442000
202006,148826,906219,1,1.75,"NW","HOLMES PARK",38.97,-94.57,3858200,9434200
202006,148826,906220,1,2.63,"NW","HOLMES PARK",38.98,-94.58,3858800,9434800
202006,148826,906520,1,.88,"NW","LAKE LOTAWANA",38.91,-94.33,3854600,9419800
202006,148826,906521,1,1.48,"SSE","BLUE SPGS",39,-94.27,3900,9416200
202006,148826,906522,1,.87,"NE","(STJ)ST JOSEPH MEM A",39.78,-94.91,3946800,9454600
202006,148826,906523,1,1.38,"W","GREENWOOD",38.852,-94.3756,3851120,9422536
202006,148826,906524,1,.88,"NE","SEDALIA ARPT",38.71,-93.17,3842600,9310200
202006,148826,906525,1,.53,"E","(STJ)ST JOSEPH MEM A",39.77,-94.91,3946200,9454600
202006,148826,906526,1,3.3,"WNW","DODSON",38.99,-94.59,3859400,9435400
202006,148826,906527,1,.54,"E","CLEVELAND",38.68,-94.59,3840800,9435400
202006,148826,906528,1,1.39,"W","GREENWOOD",38.8524,-94.3757,3851144,9422542
202006,148826,906529,1,.76,"SSE","LAKE WINNEBAGO",38.8101,-94.2641,3848606,9415846
202006,148826,906530,1,.88,"SE","WARRENSBURG",38.76,-93.74,3845600,9344400
202006,148830,896630,1,4.16,"E","HALE BONNY DAM ARPT",39.631,-102.1018,3937860,1026108
202006,148830,904953,1,12.72,"NNE","WILD HORSE",39,-102.95,3900,10257000
202006,148830,904953,2,12.62,"N","WILD HORSE",39,-102.96,3900,10257600
202006,148830,904954,1,11.98,"NNE","WILD HORSE",38.988,-102.9446,3859280,10256676
202006,148830,904954,2,10.94,"NNE","WILD HORSE",38.9743,-102.9547,3858458,10257282
202006,148830,904955,1,10.83,"NNE","WILD HORSE",38.9732,-102.9573,3858392,10257438
202006,148830,904955,2,10.82,"NNE","WILD HORSE",38.9732,-102.9587,3858392,10257522
202006,148830,904956,1,16.55,"NNW","FIRSTVIEW",39.0537,-102.5977,393222,10235862
202006,148830,904956,2,16.7,"N","FIRSTVIEW",39.0572,-102.5899,393432,10235394
202006,148830,904957,1,11.42,"SSE","BURLINGTON",39.149,-102.1831,398940,10210986
202006,148830,904957,2,11.78,"SSE","BURLINGTON",39.1512,-102.1626,399072,1029756
202006,148832,896634,1,7.58,"SSW","ST FRANCIS ARPT",39.6558,-101.8729,3939348,10152374
202006,148832,896636,1,7.96,"NNE","KANORADO ARPT",39.5122,-101.9857,3930732,10159142
202006,148832,904958,1,3.24,"S","SHARON SPGS ARPT",38.8031,-101.7521,3848186,10145126
202006,148832,904958,2,2.69,"S","SHARON SPGS ARPT",38.8111,-101.7496,3848666,10144976
202006,148833,896640,1,5.15,"ENE","PORT EVERGLADES",26.12,-80.05,267200,803000
202006,148836,896642,1,2.84,"WSW","PALISADE",40.3355,-101.1506,4020130,1019036
202006,148836,896643,1,2.85,"WSW","PALISADE",40.3355,-101.1506,4020130,1019036
202006,148836,896644,1,.41,"W","PALISADE",40.3491,-101.1078,4020946,1016468
202006,148837,896646,1,1.86,"SE","NORTH NAPLES",26.21,-81.78,2612600,8146800
202006,148837,896646,2,.96,"N","EAST NAPLES",26.1338,-81.7815,268028,8146890
202006,148837,896646,3,.39,"W","NAPLES",26.13,-81.8063,267800,8148378
202006,148837,896646,4,1.76,"SW","NORTH NAPLES",26.2093,-81.8166,2612558,8148996
202006,148838,896647,1,8.89,"SE","HALLANDALE BEACH",25.9,-80.03,2554000,801800
202006,148840,896651,1,5.67,"NNE","MIAMI BEACH",25.88,-80.1,2552800,806000
202006,148840,896652,1,9.69,"N","TURKEY POINT",25.52,-80.31,2531200,8018600
202006,148842,896660,1,.93,"SE","PORT EVERGLADES",26.09,-80.12,265400,807200
202006,148842,896663,1,3.03,"SSE","PORT EVERGLADES",26.06,-80.11,263600,806600
202006,148842,896665,1,.62,"E","PORT EVERGLADES",26.1,-80.12,266000,807200
202006,148842,896666,1,3.74,"ESE","KEY BISCAYNE",25.75,-80.1,2545000,806000
202006,148842,896667,1,3.03,"SSE","PORT EVERGLADES",26.06,-80.11,263600,806600
202006,148844,896669,1,.93,"NW","LAKE WORTH",26.63,-80.06,2637800,803600
202006,148844,896669,2,1.05,"NW","LAKE WORTH",26.6323,-80.0601,2637938,803606
202006,148844,896669,3,.87,"NNW","LAKE WORTH",26.6321,-80.0541,2637926,803246
202006,148844,896669,4,.73,"NNW","LAKE WORTH",26.6298,-80.0544,2637788,803264
202006,148844,896670,1,5.74,"WNW","BOCA RATON",26.37,-80.17,2622200,8010200
202006,148844,896670,2,5.62,"WNW","BOCA RATON",26.3662,-80.169,2621972,8010140
202006,148844,896670,3,5.89,"W","BOCA RATON",26.3656,-80.1735,2621936,8010410
202006,148844,896670,4,5.98,"WNW","BOCA RATON",26.3706,-80.1738,2622236,8010428
202006,148844,896671,1,3.17,"WNW","POMPANO BEACH HIGHLN",26.31,-80.17,2618600,8010200
202006,148844,896671,2,3.18,"NNE","MARGATE",26.3106,-80.1758,2618636,8010548
202006,148844,896671,3,2.71,"NE","MARGATE",26.3017,-80.1741,2618102,8010446
202006,148844,896671,4,2.83,"W","POMPANO BEACH HIGHLN",26.3011,-80.1656,2618066,809936
202006,148846,896705,1,4.95,"W","BOCA RATON",26.35,-80.16,2621000,809600
202006,148846,896710,1,5.47,"W","BOCA RATON",26.3534,-80.1682,2621204,8010092
202006,148846,896712,1,5.37,"WNW","BOCA RATON",26.38,-80.16,2622800,809600
202006,148846,896714,1,4.39,"W","BOCA RATON",26.34,-80.15,2620400,809000
202006,148846,896717,1,.93,"SW","DEERFIELD BEACH",26.31,-80.11,2618600,806600
202006,148846,896748,1,3.96,"WNW","BOCA RATON",26.37,-80.14,2622200,808400
202006,148846,896748,2,3.31,"WNW","BOCA RATON",26.37,-80.1285,2622200,807710
202006,148846,896748,3,3.29,"W","BOCA RATON",26.3579,-80.1324,2621474,807944
202006,148846,896748,4,3.77,"W","BOCA RATON",26.3579,-80.1402,2621474,808412
202006,148846,896757,1,5.3,"WSW","DELRAY BEACH",26.441,-80.1494,2626460,808964
202006,148846,896757,2,4.68,"WSW","DELRAY BEACH",26.4409,-80.1383,2626454,808298
202006,148846,896757,3,5.35,"NW","BOCA RATON",26.4063,-80.1395,2624378,808370
202006,148846,896757,4,6.05,"NW","BOCA RATON",26.4059,-80.1554,2624354,809324
202006,148846,896765,1,4.64,"SW","DELRAY BEACH",26.42,-80.12,2625200,807200
202006,148846,896765,2,4.9,"SW","DELRAY BEACH",26.4142,-80.1188,2624852,807128
202006,148846,896765,3,5.06,"SW","DELRAY BEACH",26.4147,-80.1237,2624882,807422
202006,148846,896765,4,4.78,"SW","DELRAY BEACH",26.4199,-80.1234,2625194,807404
202006,148846,896769,1,3.83,"SSW","FLORIDA GARDENS",26.5712,-80.1594,2634272,809564
202006,148846,896769,2,3.43,"SSW","FLORIDA GARDENS",26.572,-80.144,2634320,808640
202006,148846,896769,3,4.41,"SSW","FLORIDA GARDENS",26.5574,-80.1443,2633444,808658
202006,148846,896769,4,4.58,"SSW","FLORIDA GARDENS",26.5588,-80.1585,2633528,809510
202006,148852,896774,1,11.48,"NNE","PORT EVERGLADES",26.26,-80.08,2615600,804800
202006,148852,896777,1,.93,"SE","PORT EVERGLADES",26.09,-80.12,265400,807200
202006,148889,897171,1,10.38,"N","ARNOLD",41.58,-100.19,4134800,10011400
202006,148889,897172,1,3.49,"N","ARNOLD",41.48,-100.19,4128800,10011400
202006,148889,897173,1,2.76,"N","ARNOLD",41.47,-100.2,4128200,10012000
202006,148889,897174,1,3.45,"N","ARNOLD",41.48,-100.2,4128800,10012000
202006,148889,897175,1,0,"N","MAXWELL",41.08,-100.53,414800,10031800
202006,148889,897176,1,9.89,"NNW","ROSE",42.34,-99.51,4220400,9930600
202006,148889,897177,1,16.59,"N","ARNOLD",41.67,-100.19,4140200,10011400
202006,148889,897178,1,.51,"E","THEDFORD",41.98,-100.57,4158800,10034200
202006,148889,897179,1,.51,"E","THEDFORD",41.98,-100.57,4158800,10034200
202006,148889,897180,1,14.4,"NE","ROSE",42.33,-99.25,4219800,9915000
202006,148889,897181,1,13.97,"S","NEWPORT",42.4,-99.29,4224000,9917400
202006,148889,897182,1,6.87,"SE","NEWPORT",42.52,-99.25,4231200,9915000
202006,148889,897183,1,5.49,"NNE","(LBF)BIRD FLD NORTH",41.2,-100.63,4112000,10037800
202006,148889,897184,1,5.34,"SW","ATKINSON",42.48,-99.05,4228800,993000
202006,148889,897185,1,4.12,"ESE","STUART",42.57,-99.06,4234200,993600
202006,148889,897186,1,3.28,"SW","ATKINSON",42.5,-99.02,4230000,991200
202006,148889,897187,1,1.73,"SE","GANDY",41.45,-100.45,4127000,10027000
202006,148889,897188,1,9.24,"W","ROSE",42.21,-99.65,4212600,9939000
202006,148889,897189,1,3.7,"NW","ROSE",42.23,-99.53,4213800,9931800
202006,148889,897190,1,3.7,"NW","ROSE",42.23,-99.53,4213800,9931800
202006,148889,897191,1,2.06,"W","BREWSTER",41.93,-99.91,4155800,9954600
202006,148889,897192,1,1.53,"W","ATKINSON",42.53,-99,4231800,9900
202006,148889,897193,1,2.81,"S","SPENCER",42.83,-98.69,4249800,9841400
202006,148889,897194,1,6.8,"WSW","STAPLETON",41.44,-100.64,4126400,10038400
202006,148889,897195,1,5.67,"W","ROSE",42.19,-99.58,4211400,9934800
202006,148889,897196,1,2.76,"S","GROSS",42.91,-98.57,4254600,9834200
202006,148889,897197,1,9.83,"NE","STUART",42.68,-98.97,4240800,9858200
202006,148889,897198,1,0,"N","LISCO",41.5,-102.62,4130000,10237200
202006,148889,897199,1,5.5,"NE","LISCO",41.56,-102.55,4133600,10233000
202006,148889,897200,1,20.66,"NE","STUART",42.83,-98.87,4249800,9852200
202006,147089,884152,1,1.4,"E","SHEBOYGAN",43.75,-87.692,4345000,8741520
202006,147089,884153,1,.56,"N","PORT WASHINGTON",43.388,-87.868,4323280,8752080
202006,147089,884154,1,4.17,"NNW","CUDAHY",43.005,-87.884,43300,8753040
202006,147089,884155,1,13.24,"S","WIND POINT",42.589,-87.809,4235340,8748540
202006,147089,884157,1,40.27,"S","NORTH POINT LTHOUSE",42.491,-87.779,4229460,8746740
202006,147106,889208,1,1.01,"NNW","KEWAUNEE",44.4643,-87.5041,4427858,8730246
202006,147106,889208,2,.96,"N","KEWAUNEE",44.4638,-87.5017,4427828,8730102
202006,147106,889208,3,.86,"N","KEWAUNEE",44.4625,-87.4997,4427750,8729982
202006,147106,889208,4,.79,"N","KEWAUNEE",44.4615,-87.5001,4427690,8730006
202006,147106,889208,5,.75,"N","KEWAUNEE",44.4607,-87.5019,4427642,8730114
202006,147106,889208,6,.94,"NNW","KEWAUNEE",44.4632,-87.5046,4427792,8730276
202006,147446,891018,2,1.11,"SE","BOAZ",39.3601,-81.4637,3921606,8127822
202006,147446,891018,3,1.4,"WSW","VIENNA",39.3259,-81.5557,3919554,8133342
202006,147446,891018,4,1.11,"SE","STEWART ARPT",39.2894,-81.5343,3917364,8132058
202006,147446,891018,5,1.5,"WNW","BOREMAN",39.2845,-81.5075,3917070,8130450
202006,147446,891021,1,.94,"WSW","CARLISLE",37.9664,-81.2366,3757984,8114196
202006,147446,891021,2,.88,"WSW","LANDISBURG",37.9661,-80.9653,3757966,8057918
202006,147446,891021,3,3.05,"NNE","ELLIOTT",38.221,-80.9595,3813260,8057570
202006,147446,891021,4,1.02,"SSE","WYNDAL",38.2074,-81.1703,3812444,8110218
202006,147448,886832,1,0,"N","LA PINE",43.67,-121.48,4340200,12128800
202006,147448,886833,1,0,"N","LA PINE",43.67,-121.48,4340200,12128800
202006,147448,886834,1,7.98,"SSW","SIMNASHO",44.86,-121.38,4451600,12122800
202006,147516,887342,1,1.6,"W","NICK SPGS",33.1981,-92.5775,3311886,9234650
202006,147516,887343,1,.62,"ESE","MC CASKILL",33.9169,-93.6399,3355014,9338394
202006,147519,887383,1,.4,"WNW","DUCK",36.1721,-75.7567,3610326,7545402
202006,147519,887383,2,.34,"WSW","DUCK",36.1688,-75.756,3610128,7545360
202006,147519,887383,3,.29,"WSW","DUCK",36.169,-75.755,3610140,7545300
202006,147519,887383,4,.37,"WNW","DUCK",36.1721,-75.7561,3610326,7545366
202006,147519,887384,1,.82,"WSW","HUBERT",34.7153,-77.2432,3442918,7714592
202006,147519,887384,2,.98,"SW","HUBERT",34.7117,-77.244,3442702,7714640
202006,147519,887384,3,.57,"S","HUBERT",34.7119,-77.2282,3442714,7713692
202006,147519,887384,4,.27,"S","HUBERT",34.7161,-77.2292,3442966,7713752
202006,147519,887385,1,1.79,"SE","STARLING",34.68,-77.21,3440800,7712600
202006,147519,887385,2,1.75,"WNW","BEAR CREEK",34.676,-77.2099,3440560,7712594
202006,147519,887385,3,1.43,"WNW","BEAR CREEK",34.6796,-77.2024,3440776,7712144
202006,147519,887385,4,1.62,"NW","BEAR CREEK",34.6835,-77.2034,3441010,7712204
202006,147519,887386,1,0,"N","PELETIER",34.73,-77.08,3443800,774800
202006,147519,887386,2,.31,"SSE","PELETIER",34.7262,-77.0771,3443572,774626
202006,147519,887386,3,.32,"S","PELETIER",34.7255,-77.081,3443530,774860
202006,147519,887386,4,.26,"W","PELETIER",34.7297,-77.0845,3443782,775070
202006,147519,887387,1,1.86,"SW","CAPE CARTERET",34.658,-77.0688,3439480,774128
202006,147519,887387,2,1.32,"S","CAPE CARTERET",34.6609,-77.0479,3439654,772874
202006,147519,887387,3,1.1,"S","CAPE CARTERET",34.6641,-77.0494,3439846,772964
202006,147519,887387,4,1.78,"SW","CAPE CARTERET",34.6599,-77.0695,3439594,774170
202006,147519,887388,1,1.28,"WNW","CAPE CARTERET",34.6892,-77.0696,3441352,774176
202006,147519,887388,2,1.22,"NW","CAPE CARTERET",34.6898,-77.0678,3441388,774068
202006,147519,887388,3,1.11,"WSW","CEDAR PT",34.6941,-77.0682,3441646,774092
202006,147519,887388,4,1.19,"WSW","CEDAR PT",34.6944,-77.0698,3441664,774188
202006,147525,887442,1,.83,"S","BOSTON",33.4181,-94.422,3325086,9425320
202006,147526,887444,1,1.77,"WSW","JENKINS",32.9597,-94.708,3257582,9442480
202006,147526,887445,1,4.09,"NW","STAMPS",32.7937,-94.8276,3247622,9449656
202006,147526,887446,1,2.19,"NNW","INDIAN ROCK",32.7281,-94.8875,3243686,9453250
202006,147526,887447,1,9.85,"WSW","ORRS",32.7867,-94.6815,3247202,9440890
202006,147526,887448,1,3.04,"W","SPRINGDALE",33.229,-94.1526,3313740,949156
202006,147526,887449,1,2.07,"WNW","NASH",33.4463,-94.1601,3326778,949606
202006,147526,887450,1,3.44,"S","LASSATER",32.7802,-94.5001,3246812,9430006
202006,147527,887451,1,1.9,"ESE","OAKHAVEN",33.7203,-93.5891,3343218,9335346
202006,147529,887454,1,.53,"NNE","DE KALB",33.5074,-94.6173,3330444,9437038
202006,147553,887597,1,2.81,"E","VALLE",35.65,-112.15,3539000,1129000
202006,147553,887597,2,7.73,"S","GRAND CANYON ARPT",35.74,-112.0548,3544400,1123288
202006,147567,887712,1,11.2,"N","CAPE CANAVERAL",28.54,-80.57,2832400,8034200
202006,147567,887714,1,4.87,"N","SATELLITE BEACH",28.24,-80.61,2814400,8036600
202006,147567,887715,1,17.44,"N","PLAYALINDA BEACH",28.8,-80.74,2848000,8044400
202006,147568,887716,1,.69,"S","CAPE CANAVERAL",28.37,-80.6,2822200,8036000
202006,147568,887718,1,4.81,"NNE","CAPE CANAVERAL",28.44,-80.56,2826400,8033600
202006,147568,887719,1,3.91,"NNE","CAPE CANAVERAL",28.43,-80.57,2825800,8034200
202006,147572,887883,1,2.78,"W","POLLOK",31.4702,-94.9272,3128212,9455632
202006,147576,887779,1,.57,"NNE","PORT WASHINGTON",43.388,-87.867,4323280,8752020
202006,147579,887823,1,0,"N","MC KEE",37.43,-84,3725800,8400
202006,147579,887823,2,1.3,"ESE","TYNER",37.34,-83.9,3720400,8354000
202006,147581,887824,1,2.33,"NE","LEAL",47.12,-98.28,477200,9816800
202006,147581,887825,1,1.46,"SSW","DAZEY BRYN ARPT",47.16,-98.18,479600,9810800
202006,147581,887826,1,6.73,"NE","SUTTON",47.47,-98.35,4728200,9821000
202006,147581,887827,1,4.69,"ENE","COOPERSTOWN ARPT",47.45,-98.01,4727000,98600
202006,147581,887828,1,5.54,"ENE","COOPERSTOWN",47.48,-98.01,4728800,98600
202006,147581,887829,1,0,"N","GRAFTON",48.42,-97.4,4825200,9724000
202006,147581,887830,1,5.61,"E","THOMPSON",47.77,-96.98,4746200,9658800
202006,147581,887831,1,4.17,"S","AKRA",48.72,-97.73,4843200,9743800
202006,147581,887832,1,0,"N","CAVALIER",48.8,-97.62,4848000,9737200
202006,147581,887833,1,.83,"SSW","PARK RIVER",48.39,-97.74,4823400,9744400
202006,147581,887834,1,.95,"W","ENDERLIN",46.62,-97.6,4637200,9736000
202006,147581,887835,1,4.25,"NNW","VENLO",46.59,-97.32,4635400,9719200
202006,147581,887836,1,8.66,"NE","FT RANSOM",46.62,-97.81,4637200,9748600
202006,147581,887837,1,8.61,"NE","SHERBROOKE",47.57,-97.61,4734200,9736600
202006,147582,887838,1,.47,"E","HALSTAD",47.35,-96.82,4721000,9649200
202006,147599,902082,1,.05,"WSW","SKIRUM",34.3197,-85.9708,3419182,8558248
202006,147599,902083,1,1.93,"N","LAKEVIEW",34.3579,-86.3314,3421474,8619884
202006,147602,887969,1,.87,"SE","HADDON HILLS",39.89,-75.04,3953400,752400
202006,147602,887974,1,0,"N","TAVISTOCK",39.88,-75.03,3952800,751800
202006,147602,887978,1,1.06,"E","HADDONFIELD",39.9,-75.01,3954000,75600
202006,147602,887982,1,.87,"SE","CHERRY HILL",39.91,-75.01,3954600,75600
202006,147602,887984,1,0,"N","FORD LNDG",39.97,-75,3958200,7500
202006,147602,887985,1,.87,"SE","CENTERTON",39.99,-74.87,3959400,7452200
202006,147604,887993,1,1.38,"W","GRAFTON ARPT",48.4,-97.4,4824000,9724000
202006,147604,887994,1,2.75,"E","KERRY",48.45,-97.74,4827000,9744400
202006,147604,887998,1,2.07,"S","SHARON",47.57,-97.9,4734200,9754000
202006,147604,888000,1,8.41,"S","LOGAN CENTER",47.68,-97.85,4740800,9751000
202006,147604,888016,1,3.45,"N","SHARON",47.65,-97.9,4739000,9754000
202006,147604,888016,2,4.93,"N","SHARON",47.67,-97.88,4740200,9752800
202006,147604,888021,1,4.86,"S","ARVILLA",47.85,-97.49,4751000,9729400
202006,147604,888021,2,2,"SE","ARVILLA",47.8995,-97.4695,4753970,9728170
202006,147604,888022,1,2.31,"NE","ARVILLA",47.94,-97.46,4756400,9727600
202006,147604,888023,1,.46,"E","ARVILLA",47.92,-97.49,4755200,9729400
202006,147604,888024,1,2.32,"E","ARVILLA",47.92,-97.45,4755200,9727000
202006,147604,888025,1,2.31,"NW","MANVEL",48.09,-97.21,485400,9712600
202006,147604,888026,1,3.16,"SW","MOORETON",46.24,-96.92,4614400,9655200
202006,147604,888027,1,.84,"SW","WAHPETON",46.26,-96.61,4615600,9636600
202006,147604,888028,1,2.31,"NE","ARVILLA",47.94,-97.46,4756400,9727600
202006,147604,888030,1,9.4,"SSW","LOGAN CENTER",47.67,-97.88,4740200,9752800
202006,147604,888030,2,4.84,"S","LOGAN CENTER",47.73,-97.82,4743800,9749200
202006,147608,888074,1,8.02,"W","LIGHTHOUSE PT",27.19,-80.4,2711400,8024000
202006,147608,888074,2,1.05,"SSE","JENSEN BEACH",27.237,-80.221,2714220,8013260
202006,147608,888074,3,1.81,"S","JUPITER IS",27.044,-80.116,272640,806960
202006,147608,888074,4,7.88,"SSW","PALM CITY",27.06,-80.304,273600,8018240
202006,147612,888056,1,.83,"SSE","KENNEDY",48.64,-96.91,4838400,9654600
202006,147612,888060,1,.83,"SSE","KENNEDY",48.64,-96.91,4838400,9654600
202006,147612,888061,1,3.48,"WSW","LAKE BRONSON",48.71,-96.74,4842600,9644400
202006,147612,888064,1,.46,"W","LAKE BRONSON ARPT",48.73,-96.66,4843800,9639600
202006,147612,888065,1,0,"N","CARIBOU",48.98,-96.45,4858800,9627000
202006,147612,888067,1,3.63,"E","PINECREEK",48.98,-95.85,4858800,9551000
202006,147612,888068,1,2.91,"NNE","NORTHLAND",48.12,-97,487200,9700
202006,147612,888070,1,.69,"S","ALVARADO",48.19,-97,4811400,9700
202006,147668,896261,1,.51,"W","SCHLESWIG",42.17,-95.44,4210200,9526400
202006,147668,896262,1,1.23,"SE","ODEBOLT",42.31,-95.25,4218600,9515000
202006,147668,896263,1,1.23,"SE","ODEBOLT",42.31,-95.25,4218600,9515000
202006,147668,896264,1,.85,"NE","TITONKA",43.24,-94.04,4314400,942400
202006,147668,896265,1,.85,"NE","TITONKA",43.24,-94.04,4314400,942400
202006,147668,899171,1,.69,"S","ELDORA",42.36,-93.1,4221600,936000
202006,147668,899172,1,.85,"SE","RINGSTED",43.29,-94.51,4317400,9430600
202006,147668,899173,1,.5,"E","GRAFTON",43.33,-93.06,4319800,933600
202006,147668,899175,1,0,"N","GRAFTON",43.33,-93.07,4319800,934200
202006,147668,899179,1,.85,"NE","GRAETTINGER",43.24,-94.76,4314400,9445600
202006,147668,899181,1,1.23,"SE","GRUNDY CENTER",42.36,-92.75,4221600,9245000
202006,147668,899185,1,4.62,"W","KESLEY",42.68,-93.01,4240800,93600
202006,147668,899186,1,.51,"E","SWALEDALE",42.98,-93.32,4258800,9319200
202006,147668,899187,1,.69,"S","HAMPTON",42.74,-93.2,4244400,9312000
202006,147668,899188,1,.69,"N","HAMPTON",42.76,-93.2,4245600,9312000
202006,147668,899189,1,.86,"SE","GRUNDY CENTER",42.36,-92.76,4221600,9245600
202006,147668,899190,1,.51,"W","KANAWHA",42.93,-93.79,4255800,9347400
202006,147668,899191,1,1.02,"E","ELDORA",42.37,-93.08,4222200,934800
202006,147668,899192,1,1.02,"E","IOWA FALLS",42.52,-93.25,4231200,9315000
202006,147668,899193,1,0,"N","LAKE MILLS",43.42,-93.53,4325200,9331800
202006,147668,899194,1,0,"N","MARSHALLTOWN ARPT",42.12,-92.92,427200,9255200
202006,147668,899195,1,1.47,"SSW","STEAMBOAT ROCK",42.4,-93.08,4224000,934800
202006,147672,890565,1,0,"N","BEAVER CITY",40.15,-99.83,409000,9949800
202006,147672,890567,1,3,"SSE","STAMFORD",40.0899,-99.5583,405394,9933498
202006,147673,890570,1,0,"N","(ODX)SHARP FLD ORD",41.62,-98.95,4137200,9857000
202006,147673,890572,1,0,"N","ORD",41.6,-98.93,4136000,9855800
202006,147673,890574,1,0,"N","NORTH LOUP",41.5,-98.78,4130000,9846800
202006,147673,890576,1,4,"NW","SHERMAN RES",41.3609,-98.9545,4121654,9857270
202006,147673,890576,2,1,"NNE","SHERMAN RES",41.3334,-98.8926,4120004,9853556
202006,147673,890578,1,1,"WNW","ST PAUL",41.2255,-98.4878,4113530,9829268
202006,147673,890579,1,4,"NE","ST LIBORY",41.1209,-98.3157,417254,9818942
202006,147673,890580,1,3,"NNW","CHAPMAN",41.0601,-98.192,413606,9811520
202006,147673,890580,2,0,"N","CHAPMAN",41.02,-98.17,411200,9810200
202006,147673,894445,1,3,"SW","CHAPMAN",40.9893,-98.2107,4059358,9812642
202006,147673,894447,1,5,"S","MARQUETTE",40.9276,-98,4055656,9800
202006,147673,894449,1,2,"SW","CLARKS",41.1795,-97.8772,4110770,9752632
202006,147673,894451,1,0,"N","AURORA MUNI ARPT",40.88,-98,4052800,9800
202006,147673,894460,1,0,"N","HENDERSON",40.78,-97.8,4046800,9748000
202006,147673,894466,1,2.75,"WNW","YORK ARPT",40.8939,-97.6294,4053634,9737764
202006,147673,894466,2,.47,"SE","YORK",40.8656,-97.5731,4051936,9734386
202006,147673,894467,1,3,"W","WACO",40.9,-97.5074,4054000,9730444
202006,147673,894472,1,0,"N","WACO",40.9,-97.45,4054000,9727000
202006,147673,894473,1,1,"NNE","DAVENPORT",40.3334,-97.7927,4020004,9747562
202006,147673,894474,1,0,"N","DESHLER",40.15,-97.72,409000,9743200
202006,147673,894475,1,0,"N","NORTH LOUP",41.5,-98.78,4130000,9846800
202006,147673,894476,1,0,"N","ALEXANDRIA",40.25,-97.38,4015000,9722800
202006,147673,904161,1,0,"N","LOUP CITY",41.28,-98.98,4116800,9858800
202006,147674,901023,1,0,"N","SUTTON",40.6,-97.85,4036000,9751000
202006,147674,901029,1,0,"N","(ODX)SHARP FLD ORD",41.62,-98.95,4137200,9857000
202006,147674,901035,1,0,"N","SHELBY",41.2,-97.43,4112000,9725800
202006,147674,901035,2,3,"NE","SHELBY",41.2307,-97.3892,4113842,9723352
202006,147674,901038,1,0,"N","WACO",40.9,-97.45,4054000,9727000
202006,147675,901051,1,16.03,"S","ELWOOD",40.37,-99.89,4022200,9953400
202006,147675,901051,2,14.75,"S","ELWOOD",40.39,-99.9,4023400,9954000
202006,147675,901054,1,6,"SSW","SMITHFIELD",40.4998,-99.7737,4029988,9946422
202006,147676,901089,1,0,"N","GENEVA",40.53,-97.58,4031800,9734800
202006,147676,901091,1,0,"N","HENDERSON",40.78,-97.8,4046800,9748000
202006,147676,901096,1,1,"NNE","HAMPTON",40.8834,-97.8927,4053004,9753562
202006,147676,901096,2,4.18,"SE","HAMPTON",40.83,-97.84,4049800,9750400
202006,147693,888748,1,2.69,"ESE","(CYS)CHEYENNE AIRPORT",41.15,-104.76,419000,10445600
202006,147693,888749,1,.69,"S","(CYS)CHEYENNE AIRPORT",41.15,-104.81,419000,10448600
202006,147693,888750,1,9.04,"N","(CYS)CHEYENNE AIRPORT",41.29,-104.79,4117400,10447400
202006,147693,888751,1,9.73,"N","(CYS)CHEYENNE AIRPORT",41.3,-104.79,4118000,10447400
202006,147693,888752,1,14.09,"NNW","DURHAM",41.38,-104.75,4122800,10445000
202006,147693,888753,1,4.02,"SSW","FONDA",41.79,-104.34,4147400,10420400
202006,147693,888754,1,2.66,"ENE","HUNTLEY",41.94,-104.1,4156400,1046000
202006,147693,888755,1,2.07,"N","COTTIER",42.05,-104.26,423000,10415600
202006,147693,888756,1,2.47,"NW","TORRINGTON",42.08,-104.22,424800,10413200
202006,147693,888757,1,0,"N","VAN TASSELL",42.66,-104.09,4239600,1045400
202006,147694,888759,1,2.05,"E","HENRY",42,-104.01,4200,104600
202006,147695,888760,1,.69,"N","(LAR)BREESE FIELD",41.32,-105.67,4119200,10540200
202006,147695,888761,1,4.38,"ENE","FEDERAL",41.29,-105.02,4117400,1051200
202006,147695,888763,1,15.42,"NE","FEDERAL",41.42,-104.88,4125200,10452800
202006,147695,888764,1,2.09,"NW","SPEER",41.07,-104.93,414200,10455800
202006,147695,888765,1,6.09,"NNW","DWYER JUNCTION",42.32,-105.05,4219200,1053000
202006,147695,888766,1,.87,"NE","OTTO",41.1,-105.07,416000,1054200
202006,148078,891950,1,.81,"NNE","LAWRENCE",42.7313,-71.1454,4243878,718724
202006,148078,892006,1,1.73,"N","WEST BROOKFIELD",42.2546,-72.1438,4215276,728628
202006,148078,892007,1,1.03,"E","STURBRIDGE",42.1,-72.06,426000,723600
202006,148078,892008,1,1.02,"N","HILLSVILLE",42.2845,-72.0236,4217070,721416
202006,148078,892010,1,.63,"S","OXFORD",42.1109,-71.8716,426654,7152296
202006,148078,894022,1,1.38,"WNW","WHITINSVILLE",42.1241,-71.6964,427446,7141784
202006,148078,894022,2,.62,"NNW","NORTHBRIDGE CENTER",42.1386,-71.6734,428316,7140404
202006,148078,894024,1,1.54,"E","CENTERVILLE",42.07,-71.59,424200,7135400
202006,148078,894024,2,1.8,"E","CENTERVILLE",42.0664,-71.5853,423984,7135118
202006,148078,894025,1,.43,"ESE","WESTVIEW",42.0986,-71.4118,425916,7124708
202006,148078,894026,1,.69,"N","DODGEVILLE",41.93,-71.3,4155800,7118000
202006,148078,894027,1,1.47,"NNW","OAKLAND",41.94,-71.14,4156400,718400
202006,148078,894028,1,1.23,"WNW","NORTH ATTLEBORO",41.9853,-71.3528,4159118,7121168
202006,148078,894029,1,.28,"SW","HANOVER CENTER",42.117,-70.8536,427020,7051216
202006,148078,894029,2,.27,"NE","HANOVER CENTER",42.1231,-70.8467,427386,7050802
202006,148078,894030,1,.13,"SSW","CLINTON",42.4183,-71.681,4225098,7140860
202006,148078,894031,1,0,"N","LANCASTER",42.45,-71.67,4227000,7140200
202006,148078,894032,1,.13,"WSW","EAST BOLTON",42.4493,-71.5724,4226958,7134344
202006,148078,894033,1,.88,"NNE","GLEASONDALE",42.4115,-71.5126,4224690,7130756
202006,148078,894034,1,1.38,"SW","NORTH SUDBURY",42.4057,-71.4189,4224342,7125134
202006,148078,894034,2,.51,"SE","PINE LAKE",42.3747,-71.4431,4222482,7126586
202006,148078,894035,1,1.47,"SSW","WELLESLEY",42.3,-71.29,4218000,7117400
202006,148078,894036,1,.64,"N","NEWTON UPPER FALLS",42.3092,-71.2205,4218552,7113230
202006,148078,894036,2,.62,"NNW","NEWTON HIGHLANDS",42.3285,-71.2236,4219710,7113416
202006,148078,894037,1,.9,"W","NEEDHAM",42.2807,-71.2475,4216842,7114850
202006,148078,894037,2,.97,"S","BABSON PARK",42.286,-71.2488,4217160,7114928
202006,148078,894097,1,2.14,"NNE","PONKAPOG",42.21,-71.11,4212600,716600
202006,148078,894098,1,.8,"N","NORTH ATTLEBORO",41.9916,-71.3303,4159496,7119818
202006,148078,894098,2,.76,"N","NORTH ATTLEBORO",41.991,-71.3308,4159460,7119848
202006,148078,894098,3,.75,"N","NORTH ATTLEBORO",41.9909,-71.33,4159454,7119800
202006,148078,894098,4,.79,"N","NORTH ATTLEBORO",41.9915,-71.3298,4159490,7119788
202006,148079,891667,1,1,"SSE","LOMAX",32.1066,-101.6235,326396,10137410
202006,148079,891669,1,1,"SSE","LOMAX",32.1066,-101.6235,326396,10137410
202006,148079,891670,1,4,"WSW","BIG SPRING",32.2279,-101.5332,3213674,10131992
202006,148081,891654,1,0,"N","HISEGA",44.05,-103.4,443000,10324000
202006,148082,891656,1,0,"N","(RCA)ELLSWORTH AFB",44.15,-103.12,449000,1037200
202006,148082,891658,1,6.28,"NNE","ELLSWORTH AFB",44.23,-103.04,4413800,1032400
202006,148083,891660,1,0,"N","HISEGA",44.05,-103.4,443000,10324000
202006,148083,891661,1,6,"NNW","KYLE",43.5002,-102.2258,4330012,10213548
202006,148083,891664,1,7.52,"SSE","RAPID CITY",43.98,-103.17,4358800,10310200
202006,148083,891665,1,2,"SE","FARMINGDALE",43.9495,-102.8516,4356970,10251096
202006,148083,891666,1,5,"S","POTATO CREEK",43.4576,-102,4327456,10200
202006,148085,891668,1,9.49,"W","JEWEL CAVE NATL MON",43.73,-104.02,4343800,1041200
202006,148086,891671,1,17.27,"S","SAVAGETON",43.62,-105.79,4337200,10547400
202006,148086,891672,1,0,"N","SAVAGETON",43.87,-105.79,4352200,10547400
202006,148086,891674,1,16.08,"S","ECHETA",44.22,-105.81,4413200,10548600
202006,148086,891675,1,12.68,"NNE","WRIGHT",43.93,-105.44,4355800,10526400
202006,148086,891676,1,24.31,"SE","WRIGHT",43.55,-105.09,4333000,1055400
202006,148086,891677,1,4,"N","ROCHELLE",43.6579,-104.97,4339474,10458200
202006,148086,891681,1,0,"N","(GCC)GILLETTE ARPT",44.35,-105.54,4421000,10532400
202006,148086,891682,1,2,"SSE","GILLETTE",44.2633,-105.4845,4415798,10529070
202006,148086,891684,1,3,"E","GILLETTE",44.29,-105.4393,4417400,10526358
202006,148086,891685,1,4,"SE","GILLETTE",44.2491,-105.4428,4414946,10526568
202006,148086,891686,1,1,"NE","ECHETA",44.4602,-105.8457,4427612,10550742
202006,148086,891687,1,0,"N","GILLETTE",44.29,-105.5,4417400,10530000
202006,148086,891689,1,6.15,"WNW","CLARETON",43.74,-104.81,4344400,10448600
202006,148086,891690,1,18.59,"SW","UPTON",43.93,-104.92,4355800,10455200
202006,148086,891691,1,6,"WNW","NEWCASTLE",43.8932,-104.3113,4353592,10418678
202006,148086,891692,1,6,"ESE","CLARETON",43.6668,-104.5891,4340008,10435346
202006,148086,891694,1,0,"N","FOUR CORNERS",44.08,-104.14,444800,1048400
202006,148086,891695,1,3,"NNE","NEWCASTLE",43.9001,-104.177,4354006,10410620
202006,148086,891697,1,0,"N","PINE HAVEN",44.36,-104.81,4421600,10448600
202006,148086,891698,1,10.06,"SE","KEYHOLE RESERVOIR",44.29,-104.62,4417400,10437200
202006,148086,891700,1,6.4,"W","BEULAH",44.53,-104.21,4431800,10412600
202006,148088,893533,1,7.99,"W","JEWEL CAVE NATL MON",43.73,-103.99,4343800,10359400
202006,148088,893534,1,9.49,"W","JEWEL CAVE NATL MON",43.73,-104.02,4343800,1041200
202006,148088,893535,1,9.55,"W","EDGEMONT",43.3,-104.02,4318000,1041200
202006,148088,893536,1,0,"N","(CUT)CUSTER CO ARPT",43.73,-103.63,4343800,10337800
202006,148088,893538,1,3,"WSW","FAIRBURN",43.6734,-103.2655,4340404,10315930
202006,148088,893541,1,6.57,"SE","CHEYENNE CROSSING",44.23,-103.78,4413800,10346800
202006,148088,893544,1,.5,"W","HOT SPRINGS MUNICIPAL AIRPORT",43.37,-103.39,4322200,10323400
202006,148088,893549,1,11.61,"E","OELRICHS",43.19,-103,4311400,10300
202006,148088,893550,1,6,"W","ROCHFORD",44.12,-103.841,447200,10350460
202006,148088,893554,1,0,"N","HILL CITY",43.93,-103.58,4355800,10334800
202006,148088,893555,1,4,"S","RAPID CITY",44.0221,-103.23,441326,10313800
202006,148088,893556,1,4.15,"N","SILVER CITY",44.14,-103.57,448400,10334200
202006,148088,893557,1,4,"SSW","RAPID CITY",44.0265,-103.2608,441590,10315648
202006,148088,893560,1,9.64,"WNW","BELLE FOURCHE AIRPORT",44.8,-104.03,4448000,1041800
202006,148088,893561,1,0,"N","(RCA)ELLSWORTH AFB",44.15,-103.12,449000,1037200
202006,148088,893562,1,1,"E","LEAD",44.35,-103.7498,4421000,10344988
202006,148088,893563,1,0,"N","SPEARFISH",44.49,-103.86,4429400,10351600
202006,148088,893564,1,4,"E","SPEARFISH",44.49,-103.7789,4429400,10346734
202006,148088,893565,1,7.6,"N","REDIG",45.38,-103.55,4522800,10333000
202006,148088,893566,1,1,"NNW","NISLAND",44.6834,-103.5578,4441004,10333468
202006,148088,893567,1,11.77,"WSW","CASTLE ROCK",44.92,-103.66,4455200,10339600
202006,148088,893568,1,3,"SE","NEWELL",44.6793,-103.3768,4440758,10322608
202006,148088,893569,1,26.21,"WNW","CASTLE ROCK",45.14,-103.91,458400,10354600
202006,148088,893574,1,6.15,"WNW","CHEYENNE CROSSING",44.328,-103.988,4419680,10359280
202006,148088,893576,1,3,"W","UNION CENTER",44.56,-102.7309,4433600,10243854
202006,148088,893577,1,3,"SE","SPEARFISH",44.4593,-103.817,4427558,10349020
202006,148088,893578,1,2,"NE","RAPID CITY",44.1005,-103.2015,446030,10312090
202006,148088,893580,1,4.92,"WNW","NEW UNDERWOOD",44.12,-102.93,447200,10255800
202006,148088,893583,1,0,"N","(2WX)BUFFALO",45.6,-103.55,4536000,10333000
202006,148088,893584,1,1,"N","CAMP CROOK",45.5645,-103.98,4533870,10358800
202006,148088,893585,1,5.22,"WSW","BRIDGER",44.51,-101.99,4430600,10159400
202006,148088,893587,1,2,"ENE","WHITE OWL",44.6111,-102.3924,4436666,10223544
202006,148088,893591,1,3,"W","FAITH",45.03,-102.0914,451800,1025484
202006,148751,896178,1,0,"E","CAMP GROVE",41.08,-89.65,414800,8939000
202006,148751,896180,1,0,"N","TOLUCA",41,-89.13,4100,897800
202006,148752,896182,1,1.54,"W","ELLIS",40.3518,-87.9091,4021108,8754546
202006,148752,896182,2,3.13,"SW","ARMSTRONG",40.2677,-87.9118,4016062,8754708
202006,148752,896182,3,1.71,"SSE","ARMSTRONG",40.2758,-87.8634,4016548,8751804
202006,148752,896182,4,.42,"ENE","ELLIS",40.3528,-87.8728,4021168,8752368
202006,148767,896266,1,2.14,"NNW","PELLA",41.45,-92.94,4127000,9256400
202006,148767,896267,1,.86,"NW","LISCOMB",42.21,-93.01,4212600,93600
202006,148767,896268,1,.69,"N","MONTOUR",41.98,-92.72,4158800,9243200
202006,148768,899510,1,.36,"NNE","GARWOOD",29.4546,-96.3973,2927276,9623838
202006,148768,899510,2,.41,"E","GARWOOD",29.4494,-96.3933,2926964,9623598
202006,148768,899510,3,.34,"S","GARWOOD",29.4451,-96.4005,2926706,9624030
202006,148768,899510,4,.36,"WNW","GARWOOD",29.4515,-96.4057,2927090,9624342
202006,148768,899511,1,.73,"WSW","NODA",29.3947,-96.3905,2923682,9623430
202006,148768,899511,2,.06,"ESE","NODA",29.3996,-96.3791,2923976,9622746
202006,148768,899511,3,.69,"NNE","GARWOOD",29.4595,-96.3961,2927570,9623766
202006,148768,899511,4,.79,"WNW","GARWOOD",29.4551,-96.4118,2927306,9624708
202006,148768,899514,1,3.65,"SW","KATY",29.77,-95.85,2946200,9551000
202006,148768,899514,2,1.91,"E","FULSHEAR",29.6772,-95.8683,2940632,9552098
202006,148768,899514,3,3.3,"SW","SIMONTON",29.6606,-96.001,2939636,9660
202006,148768,899514,4,1.99,"W","SIMONTON",29.6982,-96.0031,2941892,96186
202006,148768,899515,1,3.65,"SW","KATY",29.77,-95.85,2946200,9551000
202006,148768,899515,2,1.91,"E","FULSHEAR",29.6772,-95.8683,2940632,9552098
202006,148768,899515,3,3.3,"SW","SIMONTON",29.6606,-96.001,2939636,9660
202006,148768,899515,4,1.99,"W","SIMONTON",29.6982,-96.0031,2941892,96186
202006,148768,899524,1,1.38,"WSW","KATY",29.79,-95.82,2947400,9549200
202006,148768,899524,2,.93,"N","BARKER",29.7935,-95.7007,2947610,9542042
202006,148768,899524,3,3.53,"SW","JERSEY VILLAGE",29.8485,-95.6165,2950910,9536990
202006,148768,899524,4,3.75,"NNE","HOUSTON LAKESIDE ARP",29.8685,-95.6419,2952110,9538514
202006,148769,896269,1,.86,"SW","CLEAR LAKE",43.12,-93.39,437200,9323400
